{"type": "FeatureCollection", "features": [{"type": "Feature", "properties": {"id": null, "Name": "142 Beasley St", "description": "Stop id: 2675", "timestamp": null, "begin": null, "end": null, "altitudeMode": null, "tessellate": -1.0, "extrude": 0.0, "visibility": -1.0, "drawOrder": null, "icon": null, "mode": "bus", ":id": null, ":version": null, ":created_at": null, ":updated_at": null, "stage": null, "stopname": null, "objectid": null}, "geometry": {"type": "Point", "coordinates": [149.088941, -35.372983]}}, {"type": "Feature", "properties": {"id": null, "Name": "41 Devonport St", "description": "Stop id: 2501", "timestamp": null, "begin": null, "end": null, "altitudeMode": null, "tessellate": -1.0, "extrude": 0.0, "visibility": -1.0, "drawOrder": null, "icon": null, "mode": "bus", ":id": null, ":version": null, ":created_at": null, ":updated_at": null, "stage": null, "stopname": null, "objectid": null}, "geometry": {"type": "Point", "coordinates": [149.074514, -35.33646]}}, {"type": "Feature", "properties": {"id": null, "Name": "Ainsworth St Before Chaseling St", "description": "Stop id: 2483", "timestamp": null, "begin": null, "end": null, "altitudeMode": null, "tessellate": -1.0, "extrude": 0.0, "visibility": -1.0, "drawOrder": null, "icon": null, "mode": "bus", ":id": null, ":version": null, ":created_at": null, ":updated_at": null, "stage": null, "stopname": null, "objectid": null}, "geometry": {"type": "Point", "coordinates": [149.094895, -35.347851]}}, {"type": "Feature", "properties": {"id": null, "Name": "Ainsworth St after Alsop Cl", "description": "Stop id: 2300", "timestamp": null, "begin": null, "end": null, "altitudeMode": null, "tessellate": -1.0, "extrude": 0.0, "visibility": -1.0, "drawOrder": null, "icon": null, "mode": "bus", ":id": null, ":version": null, ":created_at": null, ":updated_at": null, "stage": null, "stopname": null, "objectid": null}, "geometry": {"type": "Point", "coordinates": [149.093419, -35.350578]}}, {"type": "Feature", "properties": {"id": null, "Name": "Ainsworth St after Chaseling St", "description": "Stop id: 2484", "timestamp": null, "begin": null, "end": null, "altitudeMode": null, "tessellate": -1.0, "extrude": 0.0, "visibility": -1.0, "drawOrder": null, "icon": null, "mode": "bus", ":id": null, ":version": null, ":created_at": null, ":updated_at": null, "stage": null, "stopname": null, "objectid": null}, "geometry": {"type": "Point", "coordinates": [149.095029, -35.347935]}}, {"type": "Feature", "properties": {"id": null, "Name": "Ainsworth St after Hindmarsh Dr", "description": "Stop id: 2301", "timestamp": null, "begin": null, "end": null, "altitudeMode": null, "tessellate": -1.0, "extrude": 0.0, "visibility": -1.0, "drawOrder": null, "icon": null, "mode": "bus", ":id": null, ":version": null, ":created_at": null, ":updated_at": null, "stage": null, "stopname": null, "objectid": null}, "geometry": {"type": "Point", "coordinates": [149.093792, -35.349842]}}, {"type": "Feature", "properties": {"id": null, "Name": "Ainsworth St after Kitchener St", "description": "Stop id: 2485", "timestamp": null, "begin": null, "end": null, "altitudeMode": null, "tessellate": -1.0, "extrude": 0.0, "visibility": -1.0, "drawOrder": null, "icon": null, "mode": "bus", ":id": null, ":version": null, ":created_at": null, ":updated_at": null, "stage": null, "stopname": null, "objectid": null}, "geometry": {"type": "Point", "coordinates": [149.096768, -35.346014]}}, {"type": "Feature", "properties": {"id": null, "Name": "Ainsworth St after Mawson Dr", "description": "Stop id: 2480", "timestamp": null, "begin": null, "end": null, "altitudeMode": null, "tessellate": -1.0, "extrude": 0.0, "visibility": -1.0, "drawOrder": null, "icon": null, "mode": "bus", ":id": null, ":version": null, ":created_at": null, ":updated_at": null, "stage": null, "stopname": null, "objectid": null}, "geometry": {"type": "Point", "coordinates": [149.098629, -35.361673]}}, {"type": "Feature", "properties": {"id": null, "Name": "Ainsworth St before Butters Dr", "description": "Stop id: 2482", "timestamp": null, "begin": null, "end": null, "altitudeMode": null, "tessellate": -1.0, "extrude": 0.0, "visibility": -1.0, "drawOrder": null, "icon": null, "mode": "bus", ":id": null, ":version": null, ":created_at": null, ":updated_at": null, "stage": null, "stopname": null, "objectid": null}, "geometry": {"type": "Point", "coordinates": [149.096909, -35.353955]}}, {"type": "Feature", "properties": {"id": null, "Name": "Ainsworth St before Horbury St", "description": "Stop id: 2672", "timestamp": null, "begin": null, "end": null, "altitudeMode": null, "tessellate": -1.0, "extrude": 0.0, "visibility": -1.0, "drawOrder": null, "icon": null, "mode": "bus", ":id": null, ":version": null, ":created_at": null, ":updated_at": null, "stage": null, "stopname": null, "objectid": null}, "geometry": {"type": "Point", "coordinates": [149.093789, -35.352021]}}, {"type": "Feature", "properties": {"id": null, "Name": "Ainsworth St before Kitchener St", "description": "Stop id: 2486", "timestamp": null, "begin": null, "end": null, "altitudeMode": null, "tessellate": -1.0, "extrude": 0.0, "visibility": -1.0, "drawOrder": null, "icon": null, "mode": "bus", ":id": null, ":version": null, ":created_at": null, ":updated_at": null, "stage": null, "stopname": null, "objectid": null}, "geometry": {"type": "Point", "coordinates": [149.096674, -35.345693]}}, {"type": "Feature", "properties": {"id": null, "Name": "Ainsworth St before Mawson Dr", "description": "Stop id: 2293", "timestamp": null, "begin": null, "end": null, "altitudeMode": null, "tessellate": -1.0, "extrude": 0.0, "visibility": -1.0, "drawOrder": null, "icon": null, "mode": "bus", ":id": null, ":version": null, ":created_at": null, ":updated_at": null, "stage": null, "stopname": null, "objectid": null}, "geometry": {"type": "Point", "coordinates": [149.098717, -35.361447]}}, {"type": "Feature", "properties": {"id": null, "Name": "Ainsworth St before Power St", "description": "Stop id: 2481", "timestamp": null, "begin": null, "end": null, "altitudeMode": null, "tessellate": -1.0, "extrude": 0.0, "visibility": -1.0, "drawOrder": null, "icon": null, "mode": "bus", ":id": null, ":version": null, ":created_at": null, ":updated_at": null, "stage": null, "stopname": null, "objectid": null}, "geometry": {"type": "Point", "coordinates": [149.09558, -35.35342]}}, {"type": "Feature", "properties": {"id": null, "Name": "Ainsworth St opp Canberra Christian School", "description": "Stop id: 2297", "timestamp": null, "begin": null, "end": null, "altitudeMode": null, "tessellate": -1.0, "extrude": 0.0, "visibility": -1.0, "drawOrder": null, "icon": null, "mode": "bus", ":id": null, ":version": null, ":created_at": null, ":updated_at": null, "stage": null, "stopname": null, "objectid": null}, "geometry": {"type": "Point", "coordinates": [149.097409, -35.356543]}}, {"type": "Feature", "properties": {"id": null, "Name": "Ainsworth St opp Hobury St", "description": "Stop id: 2671", "timestamp": null, "begin": null, "end": null, "altitudeMode": null, "tessellate": -1.0, "extrude": 0.0, "visibility": -1.0, "drawOrder": null, "icon": null, "mode": "bus", ":id": null, ":version": null, ":created_at": null, ":updated_at": null, "stage": null, "stopname": null, "objectid": null}, "geometry": {"type": "Point", "coordinates": [149.09401, -35.352035]}}, {"type": "Feature", "properties": {"id": null, "Name": "Ainsworth St opp Mawson PS", "description": "Stop id: 2295", "timestamp": null, "begin": null, "end": null, "altitudeMode": null, "tessellate": -1.0, "extrude": 0.0, "visibility": -1.0, "drawOrder": null, "icon": null, "mode": "bus", ":id": null, ":version": null, ":created_at": null, ":updated_at": null, "stage": null, "stopname": null, "objectid": null}, "geometry": {"type": "Point", "coordinates": [149.097633, -35.359881]}}, {"type": "Feature", "properties": {"id": null, "Name": "Athllon Dr 2nd after Beasley St", "description": "Stop id: 2653", "timestamp": null, "begin": null, "end": null, "altitudeMode": null, "tessellate": -1.0, "extrude": 0.0, "visibility": -1.0, "drawOrder": null, "icon": null, "mode": "bus", ":id": null, ":version": null, ":created_at": null, ":updated_at": null, "stage": null, "stopname": null, "objectid": null}, "geometry": {"type": "Point", "coordinates": [149.09321, -35.375775]}}, {"type": "Feature", "properties": {"id": null, "Name": "Athllon Dr after Beasley St", "description": "Stop id: 2652", "timestamp": null, "begin": null, "end": null, "altitudeMode": null, "tessellate": -1.0, "extrude": 0.0, "visibility": -1.0, "drawOrder": null, "icon": null, "mode": "bus", ":id": null, ":version": null, ":created_at": null, ":updated_at": null, "stage": null, "stopname": null, "objectid": null}, "geometry": {"type": "Point", "coordinates": [149.092671, -35.371283]}}, {"type": "Feature", "properties": {"id": null, "Name": "Athllon Dr after Parramatta St", "description": "Stop id: 2688", "timestamp": null, "begin": null, "end": null, "altitudeMode": null, "tessellate": -1.0, "extrude": 0.0, "visibility": -1.0, "drawOrder": null, "icon": null, "mode": "bus", ":id": null, ":version": null, ":created_at": null, ":updated_at": null, "stage": null, "stopname": null, "objectid": null}, "geometry": {"type": "Point", "coordinates": [149.091313, -35.354038]}}, {"type": "Feature", "properties": {"id": null, "Name": "Athllon Dr after Shea St", "description": "Stop id: 2650", "timestamp": null, "begin": null, "end": null, "altitudeMode": null, "tessellate": -1.0, "extrude": 0.0, "visibility": -1.0, "drawOrder": null, "icon": null, "mode": "bus", ":id": null, ":version": null, ":created_at": null, ":updated_at": null, "stage": null, "stopname": null, "objectid": null}, "geometry": {"type": "Point", "coordinates": [149.090695, -35.351277]}}, {"type": "Feature", "properties": {"id": null, "Name": "Athllon Dr at Beasley St", "description": "Stop id: 2673", "timestamp": null, "begin": null, "end": null, "altitudeMode": null, "tessellate": -1.0, "extrude": 0.0, "visibility": -1.0, "drawOrder": null, "icon": null, "mode": "bus", ":id": null, ":version": null, ":created_at": null, ":updated_at": null, "stage": null, "stopname": null, "objectid": null}, "geometry": {"type": "Point", "coordinates": [149.093063, -35.372591]}}, {"type": "Feature", "properties": {"id": null, "Name": "Athllon Dr opp Parramatta St", "description": "Stop id: 2687", "timestamp": null, "begin": null, "end": null, "altitudeMode": null, "tessellate": -1.0, "extrude": 0.0, "visibility": -1.0, "drawOrder": null, "icon": null, "mode": "bus", ":id": null, ":version": null, ":created_at": null, ":updated_at": null, "stage": null, "stopname": null, "objectid": null}, "geometry": {"type": "Point", "coordinates": [149.091612, -35.355429]}}, {"type": "Feature", "properties": {"id": null, "Name": "Athllon Dr opp Shea St", "description": "Stop id: 2651", "timestamp": null, "begin": null, "end": null, "altitudeMode": null, "tessellate": -1.0, "extrude": 0.0, "visibility": -1.0, "drawOrder": null, "icon": null, "mode": "bus", ":id": null, ":version": null, ":created_at": null, ":updated_at": null, "stage": null, "stopname": null, "objectid": null}, "geometry": {"type": "Point", "coordinates": [149.091278, -35.352368]}}, {"type": "Feature", "properties": {"id": null, "Name": "Athllon Dr opp Southlands Shops", "description": "Stop id: 2610", "timestamp": null, "begin": null, "end": null, "altitudeMode": null, "tessellate": -1.0, "extrude": 0.0, "visibility": -1.0, "drawOrder": null, "icon": null, "mode": "bus", ":id": null, ":version": null, ":created_at": null, ":updated_at": null, "stage": null, "stopname": null, "objectid": null}, "geometry": {"type": "Point", "coordinates": [149.092283, -35.363343]}}, {"type": "Feature", "properties": {"id": null, "Name": "Bateson Rd after Canberra Hospital", "description": "Stop id: 2617", "timestamp": null, "begin": null, "end": null, "altitudeMode": null, "tessellate": -1.0, "extrude": 0.0, "visibility": -1.0, "drawOrder": null, "icon": null, "mode": "bus", ":id": null, ":version": null, ":created_at": null, ":updated_at": null, "stage": null, "stopname": null, "objectid": null}, "geometry": {"type": "Point", "coordinates": [149.102806, -35.348599]}}, {"type": "Feature", "properties": {"id": null, "Name": "Bateson Rd before Canberra Hospital", "description": "Stop id: 2604", "timestamp": null, "begin": null, "end": null, "altitudeMode": null, "tessellate": -1.0, "extrude": 0.0, "visibility": -1.0, "drawOrder": null, "icon": null, "mode": "bus", ":id": null, ":version": null, ":created_at": null, ":updated_at": null, "stage": null, "stopname": null, "objectid": null}, "geometry": {"type": "Point", "coordinates": [149.102701, -35.348687]}}, {"type": "Feature", "properties": {"id": null, "Name": "Bateson Rd opp Canberra Hospital", "description": "Stop id: 2600", "timestamp": null, "begin": null, "end": null, "altitudeMode": null, "tessellate": -1.0, "extrude": 0.0, "visibility": -1.0, "drawOrder": null, "icon": null, "mode": "bus", ":id": null, ":version": null, ":created_at": null, ":updated_at": null, "stage": null, "stopname": null, "objectid": null}, "geometry": {"type": "Point", "coordinates": [149.100448, -35.347647]}}, {"type": "Feature", "properties": {"id": null, "Name": "Beasley St after Athllon Dr", "description": "Stop id: 2037", "timestamp": null, "begin": null, "end": null, "altitudeMode": null, "tessellate": -1.0, "extrude": 0.0, "visibility": -1.0, "drawOrder": null, "icon": null, "mode": "bus", ":id": null, ":version": null, ":created_at": null, ":updated_at": null, "stage": null, "stopname": null, "objectid": null}, "geometry": {"type": "Point", "coordinates": [149.095493, -35.371865]}}, {"type": "Feature", "properties": {"id": null, "Name": "Beasley St after Lambrigg St", "description": "Stop id: 2036", "timestamp": null, "begin": null, "end": null, "altitudeMode": null, "tessellate": -1.0, "extrude": 0.0, "visibility": -1.0, "drawOrder": null, "icon": null, "mode": "bus", ":id": null, ":version": null, ":created_at": null, ":updated_at": null, "stage": null, "stopname": null, "objectid": null}, "geometry": {"type": "Point", "coordinates": [149.095472, -35.371948]}}, {"type": "Feature", "properties": {"id": null, "Name": "Beasley St after Marshall St", "description": "Stop id: 2654", "timestamp": null, "begin": null, "end": null, "altitudeMode": null, "tessellate": -1.0, "extrude": 0.0, "visibility": -1.0, "drawOrder": null, "icon": null, "mode": "bus", ":id": null, ":version": null, ":created_at": null, ":updated_at": null, "stage": null, "stopname": null, "objectid": null}, "geometry": {"type": "Point", "coordinates": [149.100719, -35.371151]}}, {"type": "Feature", "properties": {"id": null, "Name": "Beasley St after Torrens Pl", "description": "Stop id: 2674", "timestamp": null, "begin": null, "end": null, "altitudeMode": null, "tessellate": -1.0, "extrude": 0.0, "visibility": -1.0, "drawOrder": null, "icon": null, "mode": "bus", ":id": null, ":version": null, ":created_at": null, ":updated_at": null, "stage": null, "stopname": null, "objectid": null}, "geometry": {"type": "Point", "coordinates": [149.088827, -35.372924]}}, {"type": "Feature", "properties": {"id": null, "Name": "Beasley St before Gepp Pl", "description": "Stop id: 2077", "timestamp": null, "begin": null, "end": null, "altitudeMode": null, "tessellate": -1.0, "extrude": 0.0, "visibility": -1.0, "drawOrder": null, "icon": null, "mode": "bus", ":id": null, ":version": null, ":created_at": null, ":updated_at": null, "stage": null, "stopname": null, "objectid": null}, "geometry": {"type": "Point", "coordinates": [149.084474, -35.368483]}}, {"type": "Feature", "properties": {"id": null, "Name": "Beasley St before Hawker St", "description": "Stop id: 2075", "timestamp": null, "begin": null, "end": null, "altitudeMode": null, "tessellate": -1.0, "extrude": 0.0, "visibility": -1.0, "drawOrder": null, "icon": null, "mode": "bus", ":id": null, ":version": null, ":created_at": null, ":updated_at": null, "stage": null, "stopname": null, "objectid": null}, "geometry": {"type": "Point", "coordinates": [149.085237, -35.370811]}}, {"type": "Feature", "properties": {"id": null, "Name": "Beasley St before Wilkins St", "description": "Stop id: 2039", "timestamp": null, "begin": null, "end": null, "altitudeMode": null, "tessellate": -1.0, "extrude": 0.0, "visibility": -1.0, "drawOrder": null, "icon": null, "mode": "bus", ":id": null, ":version": null, ":created_at": null, ":updated_at": null, "stage": null, "stopname": null, "objectid": null}, "geometry": {"type": "Point", "coordinates": [149.098123, -35.371718]}}, {"type": "Feature", "properties": {"id": null, "Name": "Beasley St before Wyatt St", "description": "Stop id: 2076", "timestamp": null, "begin": null, "end": null, "altitudeMode": null, "tessellate": -1.0, "extrude": 0.0, "visibility": -1.0, "drawOrder": null, "icon": null, "mode": "bus", ":id": null, ":version": null, ":created_at": null, ":updated_at": null, "stage": null, "stopname": null, "objectid": null}, "geometry": {"type": "Point", "coordinates": [149.085364, -35.370744]}}, {"type": "Feature", "properties": {"id": null, "Name": "Beasley St opp Gepp Pl", "description": "Stop id: 2073", "timestamp": null, "begin": null, "end": null, "altitudeMode": null, "tessellate": -1.0, "extrude": 0.0, "visibility": -1.0, "drawOrder": null, "icon": null, "mode": "bus", ":id": null, ":version": null, ":created_at": null, ":updated_at": null, "stage": null, "stopname": null, "objectid": null}, "geometry": {"type": "Point", "coordinates": [149.084696, -35.368643]}}, {"type": "Feature", "properties": {"id": null, "Name": "Beasley St opp Torrens PS", "description": "Stop id: 2034", "timestamp": null, "begin": null, "end": null, "altitudeMode": null, "tessellate": -1.0, "extrude": 0.0, "visibility": -1.0, "drawOrder": null, "icon": null, "mode": "bus", ":id": null, ":version": null, ":created_at": null, ":updated_at": null, "stage": null, "stopname": null, "objectid": null}, "geometry": {"type": "Point", "coordinates": [149.089791, -35.372251]}}, {"type": "Feature", "properties": {"id": null, "Name": "Beasley St opp Torrens Shops", "description": "Stop id: 2520", "timestamp": null, "begin": null, "end": null, "altitudeMode": null, "tessellate": -1.0, "extrude": 0.0, "visibility": -1.0, "drawOrder": null, "icon": null, "mode": "bus", ":id": null, ":version": null, ":created_at": null, ":updated_at": null, "stage": null, "stopname": null, "objectid": null}, "geometry": {"type": "Point", "coordinates": [149.087106, -35.373643]}}, {"type": "Feature", "properties": {"id": null, "Name": "Beasley St opp Wilkins St", "description": "Stop id: 2655", "timestamp": null, "begin": null, "end": null, "altitudeMode": null, "tessellate": -1.0, "extrude": 0.0, "visibility": -1.0, "drawOrder": null, "icon": null, "mode": "bus", ":id": null, ":version": null, ":created_at": null, ":updated_at": null, "stage": null, "stopname": null, "objectid": null}, "geometry": {"type": "Point", "coordinates": [149.09871, -35.371724]}}, {"type": "Feature", "properties": {"id": null, "Name": "Bromby St after Julia Flynn Av", "description": "Stop id: 2110", "timestamp": null, "begin": null, "end": null, "altitudeMode": null, "tessellate": -1.0, "extrude": 0.0, "visibility": -1.0, "drawOrder": null, "icon": null, "mode": "bus", ":id": null, ":version": null, ":created_at": null, ":updated_at": null, "stage": null, "stopname": null, "objectid": null}, "geometry": {"type": "Point", "coordinates": [149.107655, -35.363641]}}, {"type": "Feature", "properties": {"id": null, "Name": "Bromby St after William Wilkins Cr", "description": "Stop id: 2109", "timestamp": null, "begin": null, "end": null, "altitudeMode": null, "tessellate": -1.0, "extrude": 0.0, "visibility": -1.0, "drawOrder": null, "icon": null, "mode": "bus", ":id": null, ":version": null, ":created_at": null, ":updated_at": null, "stage": null, "stopname": null, "objectid": null}, "geometry": {"type": "Point", "coordinates": [149.107772, -35.363601]}}, {"type": "Feature", "properties": {"id": null, "Name": "Bromby St before Cobbadah St", "description": "Stop id: 2107", "timestamp": null, "begin": null, "end": null, "altitudeMode": null, "tessellate": -1.0, "extrude": 0.0, "visibility": -1.0, "drawOrder": null, "icon": null, "mode": "bus", ":id": null, ":version": null, ":created_at": null, ":updated_at": null, "stage": null, "stopname": null, "objectid": null}, "geometry": {"type": "Point", "coordinates": [149.106953, -35.36213]}}, {"type": "Feature", "properties": {"id": null, "Name": "Bromby St opp Cobbadah St", "description": "Stop id: 2108", "timestamp": null, "begin": null, "end": null, "altitudeMode": null, "tessellate": -1.0, "extrude": 0.0, "visibility": -1.0, "drawOrder": null, "icon": null, "mode": "bus", ":id": null, ":version": null, ":created_at": null, ":updated_at": null, "stage": null, "stopname": null, "objectid": null}, "geometry": {"type": "Point", "coordinates": [149.107125, -35.36208]}}, {"type": "Feature", "properties": {"id": null, "Name": "Callam St after Hindmarsh Dr", "description": "Stop id: 2592", "timestamp": null, "begin": null, "end": null, "altitudeMode": null, "tessellate": -1.0, "extrude": 0.0, "visibility": -1.0, "drawOrder": null, "icon": null, "mode": "bus", ":id": null, ":version": null, ":created_at": null, ":updated_at": null, "stage": null, "stopname": null, "objectid": null}, "geometry": {"type": "Point", "coordinates": [149.089343, -35.34819]}}, {"type": "Feature", "properties": {"id": null, "Name": "Canberra Christian School Ainsworth St", "description": "Stop id: 2296", "timestamp": null, "begin": null, "end": null, "altitudeMode": null, "tessellate": -1.0, "extrude": 0.0, "visibility": -1.0, "drawOrder": null, "icon": null, "mode": "bus", ":id": null, ":version": null, ":created_at": null, ":updated_at": null, "stage": null, "stopname": null, "objectid": null}, "geometry": {"type": "Point", "coordinates": [149.097686, -35.356095]}}, {"type": "Feature", "properties": {"id": null, "Name": "Canberra College Launceston St", "description": "Stop id: 2091", "timestamp": null, "begin": null, "end": null, "altitudeMode": null, "tessellate": -1.0, "extrude": 0.0, "visibility": -1.0, "drawOrder": null, "icon": null, "mode": "bus", ":id": null, ":version": null, ":created_at": null, ":updated_at": null, "stage": null, "stopname": null, "objectid": null}, "geometry": {"type": "Point", "coordinates": [149.090057, -35.340248]}}, {"type": "Feature", "properties": {"id": null, "Name": "Canberra Hospital Bateson Rd", "description": "Stop id: 5100", "timestamp": null, "begin": null, "end": null, "altitudeMode": null, "tessellate": -1.0, "extrude": 0.0, "visibility": -1.0, "drawOrder": null, "icon": null, "mode": "bus", ":id": null, ":version": null, ":created_at": null, ":updated_at": null, "stage": null, "stopname": null, "objectid": null}, "geometry": {"type": "Point", "coordinates": [149.100643, -35.348479]}}, {"type": "Feature", "properties": {"id": null, "Name": "Canberra Hospital Yamba Dr", "description": "Stop id: 2382", "timestamp": null, "begin": null, "end": null, "altitudeMode": null, "tessellate": -1.0, "extrude": 0.0, "visibility": -1.0, "drawOrder": null, "icon": null, "mode": "bus", ":id": null, ":version": null, ":created_at": null, ":updated_at": null, "stage": null, "stopname": null, "objectid": null}, "geometry": {"type": "Point", "coordinates": [149.09975, -35.346484]}}, {"type": "Feature", "properties": {"id": null, "Name": "Carruthers St after 2nd McCormack St", "description": "Stop id: 2006", "timestamp": null, "begin": null, "end": null, "altitudeMode": null, "tessellate": -1.0, "extrude": 0.0, "visibility": -1.0, "drawOrder": null, "icon": null, "mode": "bus", ":id": null, ":version": null, ":created_at": null, ":updated_at": null, "stage": null, "stopname": null, "objectid": null}, "geometry": {"type": "Point", "coordinates": [149.075588, -35.327662]}}, {"type": "Feature", "properties": {"id": null, "Name": "Carruthers St after Allan St", "description": "Stop id: 2015", "timestamp": null, "begin": null, "end": null, "altitudeMode": null, "tessellate": -1.0, "extrude": 0.0, "visibility": -1.0, "drawOrder": null, "icon": null, "mode": "bus", ":id": null, ":version": null, ":created_at": null, ":updated_at": null, "stage": null, "stopname": null, "objectid": null}, "geometry": {"type": "Point", "coordinates": [149.085024, -35.325514]}}, {"type": "Feature", "properties": {"id": null, "Name": "Carruthers St after Jennings St", "description": "Stop id: 2007", "timestamp": null, "begin": null, "end": null, "altitudeMode": null, "tessellate": -1.0, "extrude": 0.0, "visibility": -1.0, "drawOrder": null, "icon": null, "mode": "bus", ":id": null, ":version": null, ":created_at": null, ":updated_at": null, "stage": null, "stopname": null, "objectid": null}, "geometry": {"type": "Point", "coordinates": [149.075576, -35.324566]}}, {"type": "Feature", "properties": {"id": null, "Name": "Carruthers St after Nelson Pl", "description": "Stop id: 2026", "timestamp": null, "begin": null, "end": null, "altitudeMode": null, "tessellate": -1.0, "extrude": 0.0, "visibility": -1.0, "drawOrder": null, "icon": null, "mode": "bus", ":id": null, ":version": null, ":created_at": null, ":updated_at": null, "stage": null, "stopname": null, "objectid": null}, "geometry": {"type": "Point", "coordinates": [149.075785, -35.327788]}}, {"type": "Feature", "properties": {"id": null, "Name": "Carruthers St after Yarra Glen", "description": "Stop id: 2017", "timestamp": null, "begin": null, "end": null, "altitudeMode": null, "tessellate": -1.0, "extrude": 0.0, "visibility": -1.0, "drawOrder": null, "icon": null, "mode": "bus", ":id": null, ":version": null, ":created_at": null, ":updated_at": null, "stage": null, "stopname": null, "objectid": null}, "geometry": {"type": "Point", "coordinates": [149.085235, -35.325826]}}, {"type": "Feature", "properties": {"id": null, "Name": "Carruthers St before Curtin PS", "description": "Stop id: 2027", "timestamp": null, "begin": null, "end": null, "altitudeMode": null, "tessellate": -1.0, "extrude": 0.0, "visibility": -1.0, "drawOrder": null, "icon": null, "mode": "bus", ":id": null, ":version": null, ":created_at": null, ":updated_at": null, "stage": null, "stopname": null, "objectid": null}, "geometry": {"type": "Point", "coordinates": [149.077684, -35.330288]}}, {"type": "Feature", "properties": {"id": null, "Name": "Carruthers St before Groom St", "description": "Stop id: 2016", "timestamp": null, "begin": null, "end": null, "altitudeMode": null, "tessellate": -1.0, "extrude": 0.0, "visibility": -1.0, "drawOrder": null, "icon": null, "mode": "bus", ":id": null, ":version": null, ":created_at": null, ":updated_at": null, "stage": null, "stopname": null, "objectid": null}, "geometry": {"type": "Point", "coordinates": [149.090011, -35.326917]}}, {"type": "Feature", "properties": {"id": null, "Name": "Carruthers St before Theodore St", "description": "Stop id: 1907", "timestamp": null, "begin": null, "end": null, "altitudeMode": null, "tessellate": -1.0, "extrude": 0.0, "visibility": -1.0, "drawOrder": null, "icon": null, "mode": "bus", ":id": null, ":version": null, ":created_at": null, ":updated_at": null, "stage": null, "stopname": null, "objectid": null}, "geometry": {"type": "Point", "coordinates": [149.079279, -35.331821]}}, {"type": "Feature", "properties": {"id": null, "Name": "Carruthers St opp Curtin PS", "description": "Stop id: 2005", "timestamp": null, "begin": null, "end": null, "altitudeMode": null, "tessellate": -1.0, "extrude": 0.0, "visibility": -1.0, "drawOrder": null, "icon": null, "mode": "bus", ":id": null, ":version": null, ":created_at": null, ":updated_at": null, "stage": null, "stopname": null, "objectid": null}, "geometry": {"type": "Point", "coordinates": [149.077728, -35.33051]}}, {"type": "Feature", "properties": {"id": null, "Name": "Carruthers St opp Curtin Shops", "description": "Stop id: 2014", "timestamp": null, "begin": null, "end": null, "altitudeMode": null, "tessellate": -1.0, "extrude": 0.0, "visibility": -1.0, "drawOrder": null, "icon": null, "mode": "bus", ":id": null, ":version": null, ":created_at": null, ":updated_at": null, "stage": null, "stopname": null, "objectid": null}, "geometry": {"type": "Point", "coordinates": [149.082777, -35.324606]}}, {"type": "Feature", "properties": {"id": null, "Name": "Carruthers St opp Jennings St", "description": "Stop id: 2025", "timestamp": null, "begin": null, "end": null, "altitudeMode": null, "tessellate": -1.0, "extrude": 0.0, "visibility": -1.0, "drawOrder": null, "icon": null, "mode": "bus", ":id": null, ":version": null, ":created_at": null, ":updated_at": null, "stage": null, "stopname": null, "objectid": null}, "geometry": {"type": "Point", "coordinates": [149.075654, -35.324712]}}, {"type": "Feature", "properties": {"id": null, "Name": "Chifley Shops Eggleston Cr", "description": "Stop id: 2061", "timestamp": null, "begin": null, "end": null, "altitudeMode": null, "tessellate": -1.0, "extrude": 0.0, "visibility": -1.0, "drawOrder": null, "icon": null, "mode": "bus", ":id": null, ":version": null, ":created_at": null, ":updated_at": null, "stage": null, "stopname": null, "objectid": null}, "geometry": {"type": "Point", "coordinates": [149.075535, -35.35253]}}, {"type": "Feature", "properties": {"id": null, "Name": "Culgoa Cct after 1st Jindalee Cr", "description": "Stop id: 2099", "timestamp": null, "begin": null, "end": null, "altitudeMode": null, "tessellate": -1.0, "extrude": 0.0, "visibility": -1.0, "drawOrder": null, "icon": null, "mode": "bus", ":id": null, ":version": null, ":created_at": null, ":updated_at": null, "stage": null, "stopname": null, "objectid": null}, "geometry": {"type": "Point", "coordinates": [149.104996, -35.35438]}}, {"type": "Feature", "properties": {"id": null, "Name": "Culgoa Cct after 2nd Jindalee Cr", "description": "Stop id: 2097", "timestamp": null, "begin": null, "end": null, "altitudeMode": null, "tessellate": -1.0, "extrude": 0.0, "visibility": -1.0, "drawOrder": null, "icon": null, "mode": "bus", ":id": null, ":version": null, ":created_at": null, ":updated_at": null, "stage": null, "stopname": null, "objectid": null}, "geometry": {"type": "Point", "coordinates": [149.104392, -35.352203]}}, {"type": "Feature", "properties": {"id": null, "Name": "Culgoa Cct before Bulwarra Cl", "description": "Stop id: 2098", "timestamp": null, "begin": null, "end": null, "altitudeMode": null, "tessellate": -1.0, "extrude": 0.0, "visibility": -1.0, "drawOrder": null, "icon": null, "mode": "bus", ":id": null, ":version": null, ":created_at": null, ":updated_at": null, "stage": null, "stopname": null, "objectid": null}, "geometry": {"type": "Point", "coordinates": [149.104555, -35.352339]}}, {"type": "Feature", "properties": {"id": null, "Name": "Culgoa Cct opp 2nd Jindalee Cr", "description": "Stop id: 2100", "timestamp": null, "begin": null, "end": null, "altitudeMode": null, "tessellate": -1.0, "extrude": 0.0, "visibility": -1.0, "drawOrder": null, "icon": null, "mode": "bus", ":id": null, ":version": null, ":created_at": null, ":updated_at": null, "stage": null, "stopname": null, "objectid": null}, "geometry": {"type": "Point", "coordinates": [149.105101, -35.354306]}}, {"type": "Feature", "properties": {"id": null, "Name": "Curtin Shops Carruthers St", "description": "Stop id: 2018", "timestamp": null, "begin": null, "end": null, "altitudeMode": null, "tessellate": -1.0, "extrude": 0.0, "visibility": -1.0, "drawOrder": null, "icon": null, "mode": "bus", ":id": null, ":version": null, ":created_at": null, ":updated_at": null, "stage": null, "stopname": null, "objectid": null}, "geometry": {"type": "Point", "coordinates": [149.083001, -35.324994]}}, {"type": "Feature", "properties": {"id": null, "Name": "Devonport St after 1st Scottsdale St", "description": "Stop id: 2500", "timestamp": null, "begin": null, "end": null, "altitudeMode": null, "tessellate": -1.0, "extrude": 0.0, "visibility": -1.0, "drawOrder": null, "icon": null, "mode": "bus", ":id": null, ":version": null, ":created_at": null, ":updated_at": null, "stage": null, "stopname": null, "objectid": null}, "geometry": {"type": "Point", "coordinates": [149.074674, -35.336488]}}, {"type": "Feature", "properties": {"id": null, "Name": "Devonport St after 2nd Derwent St", "description": "Stop id: 2503", "timestamp": null, "begin": null, "end": null, "altitudeMode": null, "tessellate": -1.0, "extrude": 0.0, "visibility": -1.0, "drawOrder": null, "icon": null, "mode": "bus", ":id": null, ":version": null, ":created_at": null, ":updated_at": null, "stage": null, "stopname": null, "objectid": null}, "geometry": {"type": "Point", "coordinates": [149.072019, -35.334434]}}, {"type": "Feature", "properties": {"id": null, "Name": "Devonport St opp 1st Derwent St", "description": "Stop id: 2502", "timestamp": null, "begin": null, "end": null, "altitudeMode": null, "tessellate": -1.0, "extrude": 0.0, "visibility": -1.0, "drawOrder": null, "icon": null, "mode": "bus", ":id": null, ":version": null, ":created_at": null, ":updated_at": null, "stage": null, "stopname": null, "objectid": null}, "geometry": {"type": "Point", "coordinates": [149.072025, -35.334276]}}, {"type": "Feature", "properties": {"id": null, "Name": "Devonport St opp Lyons Shops", "description": "Stop id: 2499", "timestamp": null, "begin": null, "end": null, "altitudeMode": null, "tessellate": -1.0, "extrude": 0.0, "visibility": -1.0, "drawOrder": null, "icon": null, "mode": "bus", ":id": null, ":version": null, ":created_at": null, ":updated_at": null, "stage": null, "stopname": null, "objectid": null}, "geometry": {"type": "Point", "coordinates": [149.075846, -35.338826]}}, {"type": "Feature", "properties": {"id": null, "Name": "Dookie St after Hawkesbury Cr", "description": "Stop id: 2469", "timestamp": null, "begin": null, "end": null, "altitudeMode": null, "tessellate": -1.0, "extrude": 0.0, "visibility": -1.0, "drawOrder": null, "icon": null, "mode": "bus", ":id": null, ":version": null, ":created_at": null, ":updated_at": null, "stage": null, "stopname": null, "objectid": null}, "geometry": {"type": "Point", "coordinates": [149.109216, -35.376743]}}, {"type": "Feature", "properties": {"id": null, "Name": "Dookie St after Longerenong St", "description": "Stop id: 2470", "timestamp": null, "begin": null, "end": null, "altitudeMode": null, "tessellate": -1.0, "extrude": 0.0, "visibility": -1.0, "drawOrder": null, "icon": null, "mode": "bus", ":id": null, ":version": null, ":created_at": null, ":updated_at": null, "stage": null, "stopname": null, "objectid": null}, "geometry": {"type": "Point", "coordinates": [149.10911, -35.376729]}}, {"type": "Feature", "properties": {"id": null, "Name": "Dunstan St after McCulloch St", "description": "Stop id: 2021", "timestamp": null, "begin": null, "end": null, "altitudeMode": null, "tessellate": -1.0, "extrude": 0.0, "visibility": -1.0, "drawOrder": null, "icon": null, "mode": "bus", ":id": null, ":version": null, ":created_at": null, ":updated_at": null, "stage": null, "stopname": null, "objectid": null}, "geometry": {"type": "Point", "coordinates": [149.080228, -35.318862]}}, {"type": "Feature", "properties": {"id": null, "Name": "Dunstan St before McCulloch St", "description": "Stop id: 2011", "timestamp": null, "begin": null, "end": null, "altitudeMode": null, "tessellate": -1.0, "extrude": 0.0, "visibility": -1.0, "drawOrder": null, "icon": null, "mode": "bus", ":id": null, ":version": null, ":created_at": null, ":updated_at": null, "stage": null, "stopname": null, "objectid": null}, "geometry": {"type": "Point", "coordinates": [149.080242, -35.318747]}}, {"type": "Feature", "properties": {"id": null, "Name": "Eggleston Cr after McDonald St", "description": "Stop id: 2063", "timestamp": null, "begin": null, "end": null, "altitudeMode": null, "tessellate": -1.0, "extrude": 0.0, "visibility": -1.0, "drawOrder": null, "icon": null, "mode": "bus", ":id": null, ":version": null, ":created_at": null, ":updated_at": null, "stage": null, "stopname": null, "objectid": null}, "geometry": {"type": "Point", "coordinates": [149.076139, -35.349594]}}, {"type": "Feature", "properties": {"id": null, "Name": "Eggleston Cr after Plunkett St", "description": "Stop id: 2064", "timestamp": null, "begin": null, "end": null, "altitudeMode": null, "tessellate": -1.0, "extrude": 0.0, "visibility": -1.0, "drawOrder": null, "icon": null, "mode": "bus", ":id": null, ":version": null, ":created_at": null, ":updated_at": null, "stage": null, "stopname": null, "objectid": null}, "geometry": {"type": "Point", "coordinates": [149.076187, -35.349676]}}, {"type": "Feature", "properties": {"id": null, "Name": "Eggleston Cr opp Chifley Shops", "description": "Stop id: 2062", "timestamp": null, "begin": null, "end": null, "altitudeMode": null, "tessellate": -1.0, "extrude": 0.0, "visibility": -1.0, "drawOrder": null, "icon": null, "mode": "bus", ":id": null, ":version": null, ":created_at": null, ":updated_at": null, "stage": null, "stopname": null, "objectid": null}, "geometry": {"type": "Point", "coordinates": [149.075305, -35.35215]}}, {"type": "Feature", "properties": {"id": null, "Name": "Farrer PS Lambrigg St", "description": "Stop id: 2471", "timestamp": null, "begin": null, "end": null, "altitudeMode": null, "tessellate": -1.0, "extrude": 0.0, "visibility": -1.0, "drawOrder": null, "icon": null, "mode": "bus", ":id": null, ":version": null, ":created_at": null, ":updated_at": null, "stage": null, "stopname": null, "objectid": null}, "geometry": {"type": "Point", "coordinates": [149.107141, -35.378992]}}, {"type": "Feature", "properties": {"id": null, "Name": "Farrer Shops Marshall St", "description": "Stop id: 2476", "timestamp": null, "begin": null, "end": null, "altitudeMode": null, "tessellate": -1.0, "extrude": 0.0, "visibility": -1.0, "drawOrder": null, "icon": null, "mode": "bus", ":id": null, ":version": null, ":created_at": null, ":updated_at": null, "stage": null, "stopname": null, "objectid": null}, "geometry": {"type": "Point", "coordinates": [149.101153, -35.375147]}}, {"type": "Feature", "properties": {"id": null, "Name": "Garran PS Gilmore Cr", "description": "Stop id: 2265", "timestamp": null, "begin": null, "end": null, "altitudeMode": null, "tessellate": -1.0, "extrude": 0.0, "visibility": -1.0, "drawOrder": null, "icon": null, "mode": "bus", ":id": null, ":version": null, ":created_at": null, ":updated_at": null, "stage": null, "stopname": null, "objectid": null}, "geometry": {"type": "Point", "coordinates": [149.101604, -35.343981]}}, {"type": "Feature", "properties": {"id": null, "Name": "Garran Shops Gilmore Cr", "description": "Stop id: 2534", "timestamp": null, "begin": null, "end": null, "altitudeMode": null, "tessellate": -1.0, "extrude": 0.0, "visibility": -1.0, "drawOrder": null, "icon": null, "mode": "bus", ":id": null, ":version": null, ":created_at": null, ":updated_at": null, "stage": null, "stopname": null, "objectid": null}, "geometry": {"type": "Point", "coordinates": [149.108792, -35.342045]}}, {"type": "Feature", "properties": {"id": null, "Name": "Gilmore Cr after 2nd Ingamells St", "description": "Stop id: 2532", "timestamp": null, "begin": null, "end": null, "altitudeMode": null, "tessellate": -1.0, "extrude": 0.0, "visibility": -1.0, "drawOrder": null, "icon": null, "mode": "bus", ":id": null, ":version": null, ":created_at": null, ":updated_at": null, "stage": null, "stopname": null, "objectid": null}, "geometry": {"type": "Point", "coordinates": [149.107456, -35.340067]}}, {"type": "Feature", "properties": {"id": null, "Name": "Gilmore Cr after Hopegood Pl", "description": "Stop id: 2537", "timestamp": null, "begin": null, "end": null, "altitudeMode": null, "tessellate": -1.0, "extrude": 0.0, "visibility": -1.0, "drawOrder": null, "icon": null, "mode": "bus", ":id": null, ":version": null, ":created_at": null, ":updated_at": null, "stage": null, "stopname": null, "objectid": null}, "geometry": {"type": "Point", "coordinates": [149.108032, -35.34425]}}, {"type": "Feature", "properties": {"id": null, "Name": "Gilmore Cr after Sabine Cl", "description": "Stop id: 2531", "timestamp": null, "begin": null, "end": null, "altitudeMode": null, "tessellate": -1.0, "extrude": 0.0, "visibility": -1.0, "drawOrder": null, "icon": null, "mode": "bus", ":id": null, ":version": null, ":created_at": null, ":updated_at": null, "stage": null, "stopname": null, "objectid": null}, "geometry": {"type": "Point", "coordinates": [149.104092, -35.339659]}}, {"type": "Feature", "properties": {"id": null, "Name": "Gilmore Cr at 1st Ingamells St", "description": "Stop id: 2530", "timestamp": null, "begin": null, "end": null, "altitudeMode": null, "tessellate": -1.0, "extrude": 0.0, "visibility": -1.0, "drawOrder": null, "icon": null, "mode": "bus", ":id": null, ":version": null, ":created_at": null, ":updated_at": null, "stage": null, "stopname": null, "objectid": null}, "geometry": {"type": "Point", "coordinates": [149.103561, -35.339495]}}, {"type": "Feature", "properties": {"id": null, "Name": "Gilmore Cr before 1st Eldridge Cr", "description": "Stop id: 2302", "timestamp": null, "begin": null, "end": null, "altitudeMode": null, "tessellate": -1.0, "extrude": 0.0, "visibility": -1.0, "drawOrder": null, "icon": null, "mode": "bus", ":id": null, ":version": null, ":created_at": null, ":updated_at": null, "stage": null, "stopname": null, "objectid": null}, "geometry": {"type": "Point", "coordinates": [149.104958, -35.345755]}}, {"type": "Feature", "properties": {"id": null, "Name": "Gilmore Cr before Esson Pl", "description": "Stop id: 2303", "timestamp": null, "begin": null, "end": null, "altitudeMode": null, "tessellate": -1.0, "extrude": 0.0, "visibility": -1.0, "drawOrder": null, "icon": null, "mode": "bus", ":id": null, ":version": null, ":created_at": null, ":updated_at": null, "stage": null, "stopname": null, "objectid": null}, "geometry": {"type": "Point", "coordinates": [149.104937, -35.345865]}}, {"type": "Feature", "properties": {"id": null, "Name": "Gilmore Cr before Hartigan St", "description": "Stop id: 2536", "timestamp": null, "begin": null, "end": null, "altitudeMode": null, "tessellate": -1.0, "extrude": 0.0, "visibility": -1.0, "drawOrder": null, "icon": null, "mode": "bus", ":id": null, ":version": null, ":created_at": null, ":updated_at": null, "stage": null, "stopname": null, "objectid": null}, "geometry": {"type": "Point", "coordinates": [149.108857, -35.343476]}}, {"type": "Feature", "properties": {"id": null, "Name": "Gilmore Cr opp 1st Eldridge Cr", "description": "Stop id: 2539", "timestamp": null, "begin": null, "end": null, "altitudeMode": null, "tessellate": -1.0, "extrude": 0.0, "visibility": -1.0, "drawOrder": null, "icon": null, "mode": "bus", ":id": null, ":version": null, ":created_at": null, ":updated_at": null, "stage": null, "stopname": null, "objectid": null}, "geometry": {"type": "Point", "coordinates": [149.107064, -35.344997]}}, {"type": "Feature", "properties": {"id": null, "Name": "Gilmore Cr opp 1st Ingamells St", "description": "Stop id: 2533", "timestamp": null, "begin": null, "end": null, "altitudeMode": null, "tessellate": -1.0, "extrude": 0.0, "visibility": -1.0, "drawOrder": null, "icon": null, "mode": "bus", ":id": null, ":version": null, ":created_at": null, ":updated_at": null, "stage": null, "stopname": null, "objectid": null}, "geometry": {"type": "Point", "coordinates": [149.107089, -35.340057]}}, {"type": "Feature", "properties": {"id": null, "Name": "Gilmore Cr opp Garran PS", "description": "Stop id: 2264", "timestamp": null, "begin": null, "end": null, "altitudeMode": null, "tessellate": -1.0, "extrude": 0.0, "visibility": -1.0, "drawOrder": null, "icon": null, "mode": "bus", ":id": null, ":version": null, ":created_at": null, ":updated_at": null, "stage": null, "stopname": null, "objectid": null}, "geometry": {"type": "Point", "coordinates": [149.101428, -35.344033]}}, {"type": "Feature", "properties": {"id": null, "Name": "Gilmore Cr opp Garran Shops", "description": "Stop id: 2535", "timestamp": null, "begin": null, "end": null, "altitudeMode": null, "tessellate": -1.0, "extrude": 0.0, "visibility": -1.0, "drawOrder": null, "icon": null, "mode": "bus", ":id": null, ":version": null, ":created_at": null, ":updated_at": null, "stage": null, "stopname": null, "objectid": null}, "geometry": {"type": "Point", "coordinates": [149.108972, -35.342086]}}, {"type": "Feature", "properties": {"id": null, "Name": "Goodwin Village Farrer Marshall St", "description": "Stop id: 2478", "timestamp": null, "begin": null, "end": null, "altitudeMode": null, "tessellate": -1.0, "extrude": 0.0, "visibility": -1.0, "drawOrder": null, "icon": null, "mode": "bus", ":id": null, ":version": null, ":created_at": null, ":updated_at": null, "stage": null, "stopname": null, "objectid": null}, "geometry": {"type": "Point", "coordinates": [149.101828, -35.372818]}}, {"type": "Feature", "properties": {"id": null, "Name": "Heard St after Wilkins St", "description": "Stop id: 2042", "timestamp": null, "begin": null, "end": null, "altitudeMode": null, "tessellate": -1.0, "extrude": 0.0, "visibility": -1.0, "drawOrder": null, "icon": null, "mode": "bus", ":id": null, ":version": null, ":created_at": null, ":updated_at": null, "stage": null, "stopname": null, "objectid": null}, "geometry": {"type": "Point", "coordinates": [149.097688, -35.368165]}}, {"type": "Feature", "properties": {"id": null, "Name": "Heard St before Wilkins St", "description": "Stop id: 2043", "timestamp": null, "begin": null, "end": null, "altitudeMode": null, "tessellate": -1.0, "extrude": 0.0, "visibility": -1.0, "drawOrder": null, "icon": null, "mode": "bus", ":id": null, ":version": null, ":created_at": null, ":updated_at": null, "stage": null, "stopname": null, "objectid": null}, "geometry": {"type": "Point", "coordinates": [149.097572, -35.368034]}}, {"type": "Feature", "properties": {"id": null, "Name": "Heard St opp Southlands Shops", "description": "Stop id: 2044", "timestamp": null, "begin": null, "end": null, "altitudeMode": null, "tessellate": -1.0, "extrude": 0.0, "visibility": -1.0, "drawOrder": null, "icon": null, "mode": "bus", ":id": null, ":version": null, ":created_at": null, ":updated_at": null, "stage": null, "stopname": null, "objectid": null}, "geometry": {"type": "Point", "coordinates": [149.095423, -35.365578]}}, {"type": "Feature", "properties": {"id": null, "Name": "Heysen St after Devonport St", "description": "Stop id: 2505", "timestamp": null, "begin": null, "end": null, "altitudeMode": null, "tessellate": -1.0, "extrude": 0.0, "visibility": -1.0, "drawOrder": null, "icon": null, "mode": "bus", ":id": null, ":version": null, ":created_at": null, ":updated_at": null, "stage": null, "stopname": null, "objectid": null}, "geometry": {"type": "Point", "coordinates": [149.069216, -35.333242]}}, {"type": "Feature", "properties": {"id": null, "Name": "Heysen St before Devonport St", "description": "Stop id: 2504", "timestamp": null, "begin": null, "end": null, "altitudeMode": null, "tessellate": -1.0, "extrude": 0.0, "visibility": -1.0, "drawOrder": null, "icon": null, "mode": "bus", ":id": null, ":version": null, ":created_at": null, ":updated_at": null, "stage": null, "stopname": null, "objectid": null}, "geometry": {"type": "Point", "coordinates": [149.069297, -35.333039]}}, {"type": "Feature", "properties": {"id": null, "Name": "Hindmarsh Dr after Ball St", "description": "Stop id: 1376", "timestamp": null, "begin": null, "end": null, "altitudeMode": null, "tessellate": -1.0, "extrude": 0.0, "visibility": -1.0, "drawOrder": null, "icon": null, "mode": "bus", ":id": null, ":version": null, ":created_at": null, ":updated_at": null, "stage": null, "stopname": null, "objectid": null}, "geometry": {"type": "Point", "coordinates": [149.08783, -35.348742]}}, {"type": "Feature", "properties": {"id": null, "Name": "Hodgson Cr after Brinsmead St", "description": "Stop id: 2054", "timestamp": null, "begin": null, "end": null, "altitudeMode": null, "tessellate": -1.0, "extrude": 0.0, "visibility": -1.0, "drawOrder": null, "icon": null, "mode": "bus", ":id": null, ":version": null, ":created_at": null, ":updated_at": null, "stage": null, "stopname": null, "objectid": null}, "geometry": {"type": "Point", "coordinates": [149.082327, -35.366216]}}, {"type": "Feature", "properties": {"id": null, "Name": "Hodgson Cr at Murphy Cr", "description": "Stop id: 2053", "timestamp": null, "begin": null, "end": null, "altitudeMode": null, "tessellate": -1.0, "extrude": 0.0, "visibility": -1.0, "drawOrder": null, "icon": null, "mode": "bus", ":id": null, ":version": null, ":created_at": null, ":updated_at": null, "stage": null, "stopname": null, "objectid": null}, "geometry": {"type": "Point", "coordinates": [149.082531, -35.366274]}}, {"type": "Feature", "properties": {"id": null, "Name": "Hughes Shops Wisdom St", "description": "Stop id: 2540", "timestamp": null, "begin": null, "end": null, "altitudeMode": null, "tessellate": -1.0, "extrude": 0.0, "visibility": -1.0, "drawOrder": null, "icon": null, "mode": "bus", ":id": null, ":version": null, ":created_at": null, ":updated_at": null, "stage": null, "stopname": null, "objectid": null}, "geometry": {"type": "Point", "coordinates": [149.094179, -35.33292]}}, {"type": "Feature", "properties": {"id": null, "Name": "Isaacs Shops Julia Flynn Av", "description": "Stop id: 2460", "timestamp": null, "begin": null, "end": null, "altitudeMode": null, "tessellate": -1.0, "extrude": 0.0, "visibility": -1.0, "drawOrder": null, "icon": null, "mode": "bus", ":id": null, ":version": null, ":created_at": null, ":updated_at": null, "stage": null, "stopname": null, "objectid": null}, "geometry": {"type": "Point", "coordinates": [149.112619, -35.367296]}}, {"type": "Feature", "properties": {"id": null, "Name": "Julia Flynn Av after 2nd Rowntree Cr", "description": "Stop id: 2467", "timestamp": null, "begin": null, "end": null, "altitudeMode": null, "tessellate": -1.0, "extrude": 0.0, "visibility": -1.0, "drawOrder": null, "icon": null, "mode": "bus", ":id": null, ":version": null, ":created_at": null, ":updated_at": null, "stage": null, "stopname": null, "objectid": null}, "geometry": {"type": "Point", "coordinates": [149.114685, -35.375625]}}, {"type": "Feature", "properties": {"id": null, "Name": "Julia Flynn Av after 2nd Rule St", "description": "Stop id: 2463", "timestamp": null, "begin": null, "end": null, "altitudeMode": null, "tessellate": -1.0, "extrude": 0.0, "visibility": -1.0, "drawOrder": null, "icon": null, "mode": "bus", ":id": null, ":version": null, ":created_at": null, ":updated_at": null, "stage": null, "stopname": null, "objectid": null}, "geometry": {"type": "Point", "coordinates": [149.113458, -35.37172]}}, {"type": "Feature", "properties": {"id": null, "Name": "Julia Flynn Av after Adkinson Cl", "description": "Stop id: 2111", "timestamp": null, "begin": null, "end": null, "altitudeMode": null, "tessellate": -1.0, "extrude": 0.0, "visibility": -1.0, "drawOrder": null, "icon": null, "mode": "bus", ":id": null, ":version": null, ":created_at": null, ":updated_at": null, "stage": null, "stopname": null, "objectid": null}, "geometry": {"type": "Point", "coordinates": [149.110548, -35.364206]}}, {"type": "Feature", "properties": {"id": null, "Name": "Julia Flynn Av after Alexander Mackie Cct", "description": "Stop id: 2468", "timestamp": null, "begin": null, "end": null, "altitudeMode": null, "tessellate": -1.0, "extrude": 0.0, "visibility": -1.0, "drawOrder": null, "icon": null, "mode": "bus", ":id": null, ":version": null, ":created_at": null, ":updated_at": null, "stage": null, "stopname": null, "objectid": null}, "geometry": {"type": "Point", "coordinates": [149.114516, -35.375629]}}, {"type": "Feature", "properties": {"id": null, "Name": "Julia Flynn Av after Dorsch St", "description": "Stop id: 2461", "timestamp": null, "begin": null, "end": null, "altitudeMode": null, "tessellate": -1.0, "extrude": 0.0, "visibility": -1.0, "drawOrder": null, "icon": null, "mode": "bus", ":id": null, ":version": null, ":created_at": null, ":updated_at": null, "stage": null, "stopname": null, "objectid": null}, "geometry": {"type": "Point", "coordinates": [149.111467, -35.370031]}}, {"type": "Feature", "properties": {"id": null, "Name": "Julia Flynn Av after Huffer Cl", "description": "Stop id: 2465", "timestamp": null, "begin": null, "end": null, "altitudeMode": null, "tessellate": -1.0, "extrude": 0.0, "visibility": -1.0, "drawOrder": null, "icon": null, "mode": "bus", ":id": null, ":version": null, ":created_at": null, ":updated_at": null, "stage": null, "stopname": null, "objectid": null}, "geometry": {"type": "Point", "coordinates": [149.11602, -35.373262]}}, {"type": "Feature", "properties": {"id": null, "Name": "Julia Flynn Av before 1st Ellwood Cr", "description": "Stop id: 2454", "timestamp": null, "begin": null, "end": null, "altitudeMode": null, "tessellate": -1.0, "extrude": 0.0, "visibility": -1.0, "drawOrder": null, "icon": null, "mode": "bus", ":id": null, ":version": null, ":created_at": null, ":updated_at": null, "stage": null, "stopname": null, "objectid": null}, "geometry": {"type": "Point", "coordinates": [149.110326, -35.364222]}}, {"type": "Feature", "properties": {"id": null, "Name": "Julia Flynn Av before 2nd Ringrose Cr", "description": "Stop id: 2458", "timestamp": null, "begin": null, "end": null, "altitudeMode": null, "tessellate": -1.0, "extrude": 0.0, "visibility": -1.0, "drawOrder": null, "icon": null, "mode": "bus", ":id": null, ":version": null, ":created_at": null, ":updated_at": null, "stage": null, "stopname": null, "objectid": null}, "geometry": {"type": "Point", "coordinates": [149.112523, -35.365765]}}, {"type": "Feature", "properties": {"id": null, "Name": "Julia Flynn Av before 2nd Walton St", "description": "Stop id: 2464", "timestamp": null, "begin": null, "end": null, "altitudeMode": null, "tessellate": -1.0, "extrude": 0.0, "visibility": -1.0, "drawOrder": null, "icon": null, "mode": "bus", ":id": null, ":version": null, ":created_at": null, ":updated_at": null, "stage": null, "stopname": null, "objectid": null}, "geometry": {"type": "Point", "coordinates": [149.113857, -35.371902]}}, {"type": "Feature", "properties": {"id": null, "Name": "Julia Flynn Av before Crook Pl", "description": "Stop id: 2457", "timestamp": null, "begin": null, "end": null, "altitudeMode": null, "tessellate": -1.0, "extrude": 0.0, "visibility": -1.0, "drawOrder": null, "icon": null, "mode": "bus", ":id": null, ":version": null, ":created_at": null, ":updated_at": null, "stage": null, "stopname": null, "objectid": null}, "geometry": {"type": "Point", "coordinates": [149.112573, -35.36558]}}, {"type": "Feature", "properties": {"id": null, "Name": "Julia Flynn Av opp Dorsch St", "description": "Stop id: 2462", "timestamp": null, "begin": null, "end": null, "altitudeMode": null, "tessellate": -1.0, "extrude": 0.0, "visibility": -1.0, "drawOrder": null, "icon": null, "mode": "bus", ":id": null, ":version": null, ":created_at": null, ":updated_at": null, "stage": null, "stopname": null, "objectid": null}, "geometry": {"type": "Point", "coordinates": [149.111729, -35.370236]}}, {"type": "Feature", "properties": {"id": null, "Name": "Julia Flynn Av opp Isaacs Shops", "description": "Stop id: 2459", "timestamp": null, "begin": null, "end": null, "altitudeMode": null, "tessellate": -1.0, "extrude": 0.0, "visibility": -1.0, "drawOrder": null, "icon": null, "mode": "bus", ":id": null, ":version": null, ":created_at": null, ":updated_at": null, "stage": null, "stopname": null, "objectid": null}, "geometry": {"type": "Point", "coordinates": [149.112822, -35.36722]}}, {"type": "Feature", "properties": {"id": null, "Name": "Julia Flynn Av opp Rooney Pl", "description": "Stop id: 2466", "timestamp": null, "begin": null, "end": null, "altitudeMode": null, "tessellate": -1.0, "extrude": 0.0, "visibility": -1.0, "drawOrder": null, "icon": null, "mode": "bus", ":id": null, ":version": null, ":created_at": null, ":updated_at": null, "stage": null, "stopname": null, "objectid": null}, "geometry": {"type": "Point", "coordinates": [149.11589, -35.373338]}}, {"type": "Feature", "properties": {"id": null, "Name": "Kareelah Vsta after Gerogery Pl", "description": "Stop id: 2102", "timestamp": null, "begin": null, "end": null, "altitudeMode": null, "tessellate": -1.0, "extrude": 0.0, "visibility": -1.0, "drawOrder": null, "icon": null, "mode": "bus", ":id": null, ":version": null, ":created_at": null, ":updated_at": null, "stage": null, "stopname": null, "objectid": null}, "geometry": {"type": "Point", "coordinates": [149.107132, -35.355485]}}, {"type": "Feature", "properties": {"id": null, "Name": "Kareelah Vsta after Mialli Pl", "description": "Stop id: 2101", "timestamp": null, "begin": null, "end": null, "altitudeMode": null, "tessellate": -1.0, "extrude": 0.0, "visibility": -1.0, "drawOrder": null, "icon": null, "mode": "bus", ":id": null, ":version": null, ":created_at": null, ":updated_at": null, "stage": null, "stopname": null, "objectid": null}, "geometry": {"type": "Point", "coordinates": [149.107267, -35.35546]}}, {"type": "Feature", "properties": {"id": null, "Name": "Kareelah Vsta after Taronga Pl", "description": "Stop id: 2104", "timestamp": null, "begin": null, "end": null, "altitudeMode": null, "tessellate": -1.0, "extrude": 0.0, "visibility": -1.0, "drawOrder": null, "icon": null, "mode": "bus", ":id": null, ":version": null, ":created_at": null, ":updated_at": null, "stage": null, "stopname": null, "objectid": null}, "geometry": {"type": "Point", "coordinates": [149.108376, -35.35778]}}, {"type": "Feature", "properties": {"id": null, "Name": "Kareelah Vsta before Numeralla St", "description": "Stop id: 2103", "timestamp": null, "begin": null, "end": null, "altitudeMode": null, "tessellate": -1.0, "extrude": 0.0, "visibility": -1.0, "drawOrder": null, "icon": null, "mode": "bus", ":id": null, ":version": null, ":created_at": null, ":updated_at": null, "stage": null, "stopname": null, "objectid": null}, "geometry": {"type": "Point", "coordinates": [149.107688, -35.357431]}}, {"type": "Feature", "properties": {"id": null, "Name": "Kent St after Jensen St", "description": "Stop id: 2274", "timestamp": null, "begin": null, "end": null, "altitudeMode": null, "tessellate": -1.0, "extrude": 0.0, "visibility": -1.0, "drawOrder": null, "icon": null, "mode": "bus", ":id": null, ":version": null, ":created_at": null, ":updated_at": null, "stage": null, "stopname": null, "objectid": null}, "geometry": {"type": "Point", "coordinates": [149.094521, -35.329378]}}, {"type": "Feature", "properties": {"id": null, "Name": "Kent St before Birdwood St", "description": "Stop id: 2273", "timestamp": null, "begin": null, "end": null, "altitudeMode": null, "tessellate": -1.0, "extrude": 0.0, "visibility": -1.0, "drawOrder": null, "icon": null, "mode": "bus", ":id": null, ":version": null, ":created_at": null, ":updated_at": null, "stage": null, "stopname": null, "objectid": null}, "geometry": {"type": "Point", "coordinates": [149.094568, -35.329608]}}, {"type": "Feature", "properties": {"id": null, "Name": "Kent St opp Hughes Shops", "description": "Stop id: 2272", "timestamp": null, "begin": null, "end": null, "altitudeMode": null, "tessellate": -1.0, "extrude": 0.0, "visibility": -1.0, "drawOrder": null, "icon": null, "mode": "bus", ":id": null, ":version": null, ":created_at": null, ":updated_at": null, "stage": null, "stopname": null, "objectid": null}, "geometry": {"type": "Point", "coordinates": [149.095038, -35.333129]}}, {"type": "Feature", "properties": {"id": null, "Name": "Kitchener St after Ainsworth St", "description": "Stop id: 2487", "timestamp": null, "begin": null, "end": null, "altitudeMode": null, "tessellate": -1.0, "extrude": 0.0, "visibility": -1.0, "drawOrder": null, "icon": null, "mode": "bus", ":id": null, ":version": null, ":created_at": null, ":updated_at": null, "stage": null, "stopname": null, "objectid": null}, "geometry": {"type": "Point", "coordinates": [149.097398, -35.344435]}}, {"type": "Feature", "properties": {"id": null, "Name": "Kitchener St after McNicoll St", "description": "Stop id: 2268", "timestamp": null, "begin": null, "end": null, "altitudeMode": null, "tessellate": -1.0, "extrude": 0.0, "visibility": -1.0, "drawOrder": null, "icon": null, "mode": "bus", ":id": null, ":version": null, ":created_at": null, ":updated_at": null, "stage": null, "stopname": null, "objectid": null}, "geometry": {"type": "Point", "coordinates": [149.100673, -35.335958]}}, {"type": "Feature", "properties": {"id": null, "Name": "Kitchener St before 1st Gilmore Cr", "description": "Stop id: 2266", "timestamp": null, "begin": null, "end": null, "altitudeMode": null, "tessellate": -1.0, "extrude": 0.0, "visibility": -1.0, "drawOrder": null, "icon": null, "mode": "bus", ":id": null, ":version": null, ":created_at": null, ":updated_at": null, "stage": null, "stopname": null, "objectid": null}, "geometry": {"type": "Point", "coordinates": [149.102482, -35.338278]}}, {"type": "Feature", "properties": {"id": null, "Name": "Kitchener St before Ainsworth St", "description": "Stop id: 2488", "timestamp": null, "begin": null, "end": null, "altitudeMode": null, "tessellate": -1.0, "extrude": 0.0, "visibility": -1.0, "drawOrder": null, "icon": null, "mode": "bus", ":id": null, ":version": null, ":created_at": null, ":updated_at": null, "stage": null, "stopname": null, "objectid": null}, "geometry": {"type": "Point", "coordinates": [149.09724, -35.344604]}}, {"type": "Feature", "properties": {"id": null, "Name": "Kitchener St before Birdwood St", "description": "Stop id: 2269", "timestamp": null, "begin": null, "end": null, "altitudeMode": null, "tessellate": -1.0, "extrude": 0.0, "visibility": -1.0, "drawOrder": null, "icon": null, "mode": "bus", ":id": null, ":version": null, ":created_at": null, ":updated_at": null, "stage": null, "stopname": null, "objectid": null}, "geometry": {"type": "Point", "coordinates": [149.100011, -35.335187]}}, {"type": "Feature", "properties": {"id": null, "Name": "Kitchener St before Goble St", "description": "Stop id: 2270", "timestamp": null, "begin": null, "end": null, "altitudeMode": null, "tessellate": -1.0, "extrude": 0.0, "visibility": -1.0, "drawOrder": null, "icon": null, "mode": "bus", ":id": null, ":version": null, ":created_at": null, ":updated_at": null, "stage": null, "stopname": null, "objectid": null}, "geometry": {"type": "Point", "coordinates": [149.098343, -35.333996]}}, {"type": "Feature", "properties": {"id": null, "Name": "Kitchener St before Lynch St", "description": "Stop id: 2267", "timestamp": null, "begin": null, "end": null, "altitudeMode": null, "tessellate": -1.0, "extrude": 0.0, "visibility": -1.0, "drawOrder": null, "icon": null, "mode": "bus", ":id": null, ":version": null, ":created_at": null, ":updated_at": null, "stage": null, "stopname": null, "objectid": null}, "geometry": {"type": "Point", "coordinates": [149.102228, -35.338147]}}, {"type": "Feature", "properties": {"id": null, "Name": "Kitchener St opp Goble St", "description": "Stop id: 2271", "timestamp": null, "begin": null, "end": null, "altitudeMode": null, "tessellate": -1.0, "extrude": 0.0, "visibility": -1.0, "drawOrder": null, "icon": null, "mode": "bus", ":id": null, ":version": null, ":created_at": null, ":updated_at": null, "stage": null, "stopname": null, "objectid": null}, "geometry": {"type": "Point", "coordinates": [149.097867, -35.333877]}}, {"type": "Feature", "properties": {"id": null, "Name": "Lambrigg St after Prescott St", "description": "Stop id: 2474", "timestamp": null, "begin": null, "end": null, "altitudeMode": null, "tessellate": -1.0, "extrude": 0.0, "visibility": -1.0, "drawOrder": null, "icon": null, "mode": "bus", ":id": null, ":version": null, ":created_at": null, ":updated_at": null, "stage": null, "stopname": null, "objectid": null}, "geometry": {"type": "Point", "coordinates": [149.10376, -35.377961]}}, {"type": "Feature", "properties": {"id": null, "Name": "Lambrigg St opp Farrer PS", "description": "Stop id: 2472", "timestamp": null, "begin": null, "end": null, "altitudeMode": null, "tessellate": -1.0, "extrude": 0.0, "visibility": -1.0, "drawOrder": null, "icon": null, "mode": "bus", ":id": null, ":version": null, ":created_at": null, ":updated_at": null, "stage": null, "stopname": null, "objectid": null}, "geometry": {"type": "Point", "coordinates": [149.107245, -35.379151]}}, {"type": "Feature", "properties": {"id": null, "Name": "Lambrigg St opp Prescott St", "description": "Stop id: 2473", "timestamp": null, "begin": null, "end": null, "altitudeMode": null, "tessellate": -1.0, "extrude": 0.0, "visibility": -1.0, "drawOrder": null, "icon": null, "mode": "bus", ":id": null, ":version": null, ":created_at": null, ":updated_at": null, "stage": null, "stopname": null, "objectid": null}, "geometry": {"type": "Point", "coordinates": [149.103944, -35.377864]}}, {"type": "Feature", "properties": {"id": null, "Name": "Launceston St after Burnie St", "description": "Stop id: 2072", "timestamp": null, "begin": null, "end": null, "altitudeMode": null, "tessellate": -1.0, "extrude": 0.0, "visibility": -1.0, "drawOrder": null, "icon": null, "mode": "bus", ":id": null, ":version": null, ":created_at": null, ":updated_at": null, "stage": null, "stopname": null, "objectid": null}, "geometry": {"type": "Point", "coordinates": [149.07984, -35.339601]}}, {"type": "Feature", "properties": {"id": null, "Name": "Launceston St after Dennes Pl", "description": "Stop id: 2066", "timestamp": null, "begin": null, "end": null, "altitudeMode": null, "tessellate": -1.0, "extrude": 0.0, "visibility": -1.0, "drawOrder": null, "icon": null, "mode": "bus", ":id": null, ":version": null, ":created_at": null, ":updated_at": null, "stage": null, "stopname": null, "objectid": null}, "geometry": {"type": "Point", "coordinates": [149.074034, -35.346726]}}, {"type": "Feature", "properties": {"id": null, "Name": "Launceston St after Glenorchy St", "description": "Stop id: 2071", "timestamp": null, "begin": null, "end": null, "altitudeMode": null, "tessellate": -1.0, "extrude": 0.0, "visibility": -1.0, "drawOrder": null, "icon": null, "mode": "bus", ":id": null, ":version": null, ":created_at": null, ":updated_at": null, "stage": null, "stopname": null, "objectid": null}, "geometry": {"type": "Point", "coordinates": [149.079974, -35.339541]}}, {"type": "Feature", "properties": {"id": null, "Name": "Launceston St after Irving St", "description": "Stop id: 2031", "timestamp": null, "begin": null, "end": null, "altitudeMode": null, "tessellate": -1.0, "extrude": 0.0, "visibility": -1.0, "drawOrder": null, "icon": null, "mode": "bus", ":id": null, ":version": null, ":created_at": null, ":updated_at": null, "stage": null, "stopname": null, "objectid": null}, "geometry": {"type": "Point", "coordinates": [149.084709, -35.340665]}}, {"type": "Feature", "properties": {"id": null, "Name": "Launceston St after Port Arthur St", "description": "Stop id: 2068", "timestamp": null, "begin": null, "end": null, "altitudeMode": null, "tessellate": -1.0, "extrude": 0.0, "visibility": -1.0, "drawOrder": null, "icon": null, "mode": "bus", ":id": null, ":version": null, ":created_at": null, ":updated_at": null, "stage": null, "stopname": null, "objectid": null}, "geometry": {"type": "Point", "coordinates": [149.07467, -35.342863]}}, {"type": "Feature", "properties": {"id": null, "Name": "Launceston St before 2nd Tarraleah Cr", "description": "Stop id: 2067", "timestamp": null, "begin": null, "end": null, "altitudeMode": null, "tessellate": -1.0, "extrude": 0.0, "visibility": -1.0, "drawOrder": null, "icon": null, "mode": "bus", ":id": null, ":version": null, ":created_at": null, ":updated_at": null, "stage": null, "stopname": null, "objectid": null}, "geometry": {"type": "Point", "coordinates": [149.074526, -35.343412]}}, {"type": "Feature", "properties": {"id": null, "Name": "Launceston St before Furzer St", "description": "Stop id: 2002", "timestamp": null, "begin": null, "end": null, "altitudeMode": null, "tessellate": -1.0, "extrude": 0.0, "visibility": -1.0, "drawOrder": null, "icon": null, "mode": "bus", ":id": null, ":version": null, ":created_at": null, ":updated_at": null, "stage": null, "stopname": null, "objectid": null}, "geometry": {"type": "Point", "coordinates": [149.084461, -35.3408]}}, {"type": "Feature", "properties": {"id": null, "Name": "Launceston St opp Canberra College", "description": "Stop id: 2092", "timestamp": null, "begin": null, "end": null, "altitudeMode": null, "tessellate": -1.0, "extrude": 0.0, "visibility": -1.0, "drawOrder": null, "icon": null, "mode": "bus", ":id": null, ":version": null, ":created_at": null, ":updated_at": null, "stage": null, "stopname": null, "objectid": null}, "geometry": {"type": "Point", "coordinates": [149.090339, -35.340313]}}, {"type": "Feature", "properties": {"id": null, "Name": "Launceston St opp Dennes Pl", "description": "Stop id: 2065", "timestamp": null, "begin": null, "end": null, "altitudeMode": null, "tessellate": -1.0, "extrude": 0.0, "visibility": -1.0, "drawOrder": null, "icon": null, "mode": "bus", ":id": null, ":version": null, ":created_at": null, ":updated_at": null, "stage": null, "stopname": null, "objectid": null}, "geometry": {"type": "Point", "coordinates": [149.074132, -35.346677]}}, {"type": "Feature", "properties": {"id": null, "Name": "Launceston St opp Lyons Shops", "description": "Stop id: 2070", "timestamp": null, "begin": null, "end": null, "altitudeMode": null, "tessellate": -1.0, "extrude": 0.0, "visibility": -1.0, "drawOrder": null, "icon": null, "mode": "bus", ":id": null, ":version": null, ":created_at": null, ":updated_at": null, "stage": null, "stopname": null, "objectid": null}, "geometry": {"type": "Point", "coordinates": [149.076472, -35.340408]}}, {"type": "Feature", "properties": {"id": null, "Name": "Lyons Shops Launceston St", "description": "Stop id: 2069", "timestamp": null, "begin": null, "end": null, "altitudeMode": null, "tessellate": -1.0, "extrude": 0.0, "visibility": -1.0, "drawOrder": null, "icon": null, "mode": "bus", ":id": null, ":version": null, ":created_at": null, ":updated_at": null, "stage": null, "stopname": null, "objectid": null}, "geometry": {"type": "Point", "coordinates": [149.076986, -35.339708]}}, {"type": "Feature", "properties": {"id": null, "Name": "Macfarland Cr after Collings St", "description": "Stop id: 2057", "timestamp": null, "begin": null, "end": null, "altitudeMode": null, "tessellate": -1.0, "extrude": 0.0, "visibility": -1.0, "drawOrder": null, "icon": null, "mode": "bus", ":id": null, ":version": null, ":created_at": null, ":updated_at": null, "stage": null, "stopname": null, "objectid": null}, "geometry": {"type": "Point", "coordinates": [149.077995, -35.361305]}}, {"type": "Feature", "properties": {"id": null, "Name": "Macfarland Cr after Waldock St", "description": "Stop id: 2059", "timestamp": null, "begin": null, "end": null, "altitudeMode": null, "tessellate": -1.0, "extrude": 0.0, "visibility": -1.0, "drawOrder": null, "icon": null, "mode": "bus", ":id": null, ":version": null, ":created_at": null, ":updated_at": null, "stage": null, "stopname": null, "objectid": null}, "geometry": {"type": "Point", "coordinates": [149.075247, -35.355623]}}, {"type": "Feature", "properties": {"id": null, "Name": "Macfarland Cr after Wilsmore Cr", "description": "Stop id: 2056", "timestamp": null, "begin": null, "end": null, "altitudeMode": null, "tessellate": -1.0, "extrude": 0.0, "visibility": -1.0, "drawOrder": null, "icon": null, "mode": "bus", ":id": null, ":version": null, ":created_at": null, ":updated_at": null, "stage": null, "stopname": null, "objectid": null}, "geometry": {"type": "Point", "coordinates": [149.075496, -35.358116]}}, {"type": "Feature", "properties": {"id": null, "Name": "Macfarland Cr before 2nd Threlfall St", "description": "Stop id: 2055", "timestamp": null, "begin": null, "end": null, "altitudeMode": null, "tessellate": -1.0, "extrude": 0.0, "visibility": -1.0, "drawOrder": null, "icon": null, "mode": "bus", ":id": null, ":version": null, ":created_at": null, ":updated_at": null, "stage": null, "stopname": null, "objectid": null}, "geometry": {"type": "Point", "coordinates": [149.075663, -35.358229]}}, {"type": "Feature", "properties": {"id": null, "Name": "Macfarland Cr before Sheehan St", "description": "Stop id: 2058", "timestamp": null, "begin": null, "end": null, "altitudeMode": null, "tessellate": -1.0, "extrude": 0.0, "visibility": -1.0, "drawOrder": null, "icon": null, "mode": "bus", ":id": null, ":version": null, ":created_at": null, ":updated_at": null, "stage": null, "stopname": null, "objectid": null}, "geometry": {"type": "Point", "coordinates": [149.078048, -35.361502]}}, {"type": "Feature", "properties": {"id": null, "Name": "Macfarland Cr opp Pearce Shops", "description": "Stop id: 2398", "timestamp": null, "begin": null, "end": null, "altitudeMode": null, "tessellate": -1.0, "extrude": 0.0, "visibility": -1.0, "drawOrder": null, "icon": null, "mode": "bus", ":id": null, ":version": null, ":created_at": null, ":updated_at": null, "stage": null, "stopname": null, "objectid": null}, "geometry": {"type": "Point", "coordinates": [149.08133, -35.363155]}}, {"type": "Feature", "properties": {"id": null, "Name": "Macfarland Cr opp Waldock St", "description": "Stop id: 2060", "timestamp": null, "begin": null, "end": null, "altitudeMode": null, "tessellate": -1.0, "extrude": 0.0, "visibility": -1.0, "drawOrder": null, "icon": null, "mode": "bus", ":id": null, ":version": null, ":created_at": null, ":updated_at": null, "stage": null, "stopname": null, "objectid": null}, "geometry": {"type": "Point", "coordinates": [149.075326, -35.355735]}}, {"type": "Feature", "properties": {"id": null, "Name": "Marrawah St after Theodore St", "description": "Stop id: 2030", "timestamp": null, "begin": null, "end": null, "altitudeMode": null, "tessellate": -1.0, "extrude": 0.0, "visibility": -1.0, "drawOrder": null, "icon": null, "mode": "bus", ":id": null, ":version": null, ":created_at": null, ":updated_at": null, "stage": null, "stopname": null, "objectid": null}, "geometry": {"type": "Point", "coordinates": [149.082031, -35.338597]}}, {"type": "Feature", "properties": {"id": null, "Name": "Marshall St opp Farrer Shops", "description": "Stop id: 2475", "timestamp": null, "begin": null, "end": null, "altitudeMode": null, "tessellate": -1.0, "extrude": 0.0, "visibility": -1.0, "drawOrder": null, "icon": null, "mode": "bus", ":id": null, ":version": null, ":created_at": null, ":updated_at": null, "stage": null, "stopname": null, "objectid": null}, "geometry": {"type": "Point", "coordinates": [149.101027, -35.374983]}}, {"type": "Feature", "properties": {"id": null, "Name": "Marshall St opp Goodwin Village Farrer", "description": "Stop id: 2477", "timestamp": null, "begin": null, "end": null, "altitudeMode": null, "tessellate": -1.0, "extrude": 0.0, "visibility": -1.0, "drawOrder": null, "icon": null, "mode": "bus", ":id": null, ":version": null, ":created_at": null, ":updated_at": null, "stage": null, "stopname": null, "objectid": null}, "geometry": {"type": "Point", "coordinates": [149.101711, -35.373633]}}, {"type": "Feature", "properties": {"id": null, "Name": "Mawson Dr after Hurley St", "description": "Stop id: 2479", "timestamp": null, "begin": null, "end": null, "altitudeMode": null, "tessellate": -1.0, "extrude": 0.0, "visibility": -1.0, "drawOrder": null, "icon": null, "mode": "bus", ":id": null, ":version": null, ":created_at": null, ":updated_at": null, "stage": null, "stopname": null, "objectid": null}, "geometry": {"type": "Point", "coordinates": [149.096452, -35.363194]}}, {"type": "Feature", "properties": {"id": null, "Name": "Mawson Dr after Wilkins St", "description": "Stop id: 2290", "timestamp": null, "begin": null, "end": null, "altitudeMode": null, "tessellate": -1.0, "extrude": 0.0, "visibility": -1.0, "drawOrder": null, "icon": null, "mode": "bus", ":id": null, ":version": null, ":created_at": null, ":updated_at": null, "stage": null, "stopname": null, "objectid": null}, "geometry": {"type": "Point", "coordinates": [149.096533, -35.363346]}}, {"type": "Feature", "properties": {"id": null, "Name": "Mawson PS Ainsworth St", "description": "Stop id: 2294", "timestamp": null, "begin": null, "end": null, "altitudeMode": null, "tessellate": -1.0, "extrude": 0.0, "visibility": -1.0, "drawOrder": null, "icon": null, "mode": "bus", ":id": null, ":version": null, ":created_at": null, ":updated_at": null, "stage": null, "stopname": null, "objectid": null}, "geometry": {"type": "Point", "coordinates": [149.097833, -35.3599]}}, {"type": "Feature", "properties": {"id": null, "Name": "McCulloch St after 2nd Morgan Cr", "description": "Stop id: 2013", "timestamp": null, "begin": null, "end": null, "altitudeMode": null, "tessellate": -1.0, "extrude": 0.0, "visibility": -1.0, "drawOrder": null, "icon": null, "mode": "bus", ":id": null, ":version": null, ":created_at": null, ":updated_at": null, "stage": null, "stopname": null, "objectid": null}, "geometry": {"type": "Point", "coordinates": [149.082576, -35.323188]}}, {"type": "Feature", "properties": {"id": null, "Name": "McCulloch St after Reynolds St", "description": "Stop id: 2020", "timestamp": null, "begin": null, "end": null, "altitudeMode": null, "tessellate": -1.0, "extrude": 0.0, "visibility": -1.0, "drawOrder": null, "icon": null, "mode": "bus", ":id": null, ":version": null, ":created_at": null, ":updated_at": null, "stage": null, "stopname": null, "objectid": null}, "geometry": {"type": "Point", "coordinates": [149.081591, -35.320926]}}, {"type": "Feature", "properties": {"id": null, "Name": "McCulloch St before 2nd Morgan Cr", "description": "Stop id: 2012", "timestamp": null, "begin": null, "end": null, "altitudeMode": null, "tessellate": -1.0, "extrude": 0.0, "visibility": -1.0, "drawOrder": null, "icon": null, "mode": "bus", ":id": null, ":version": null, ":created_at": null, ":updated_at": null, "stage": null, "stopname": null, "objectid": null}, "geometry": {"type": "Point", "coordinates": [149.081954, -35.321608]}}, {"type": "Feature", "properties": {"id": null, "Name": "McCulloch St before Propsting St", "description": "Stop id: 2019", "timestamp": null, "begin": null, "end": null, "altitudeMode": null, "tessellate": -1.0, "extrude": 0.0, "visibility": -1.0, "drawOrder": null, "icon": null, "mode": "bus", ":id": null, ":version": null, ":created_at": null, ":updated_at": null, "stage": null, "stopname": null, "objectid": null}, "geometry": {"type": "Point", "coordinates": [149.0824, -35.323287]}}, {"type": "Feature", "properties": {"id": null, "Name": "Melrose Dr before Launceston St", "description": "Stop id: 2033", "timestamp": null, "begin": null, "end": null, "altitudeMode": null, "tessellate": -1.0, "extrude": 0.0, "visibility": -1.0, "drawOrder": null, "icon": null, "mode": "bus", ":id": null, ":version": null, ":created_at": null, ":updated_at": null, "stage": null, "stopname": null, "objectid": null}, "geometry": {"type": "Point", "coordinates": [149.083122, -35.339215]}}, {"type": "Feature", "properties": {"id": null, "Name": "Melrose Dr opp Phillip Pool", "description": "Stop id: 2032", "timestamp": null, "begin": null, "end": null, "altitudeMode": null, "tessellate": -1.0, "extrude": 0.0, "visibility": -1.0, "drawOrder": null, "icon": null, "mode": "bus", ":id": null, ":version": null, ":created_at": null, ":updated_at": null, "stage": null, "stopname": null, "objectid": null}, "geometry": {"type": "Point", "coordinates": [149.082813, -35.339084]}}, {"type": "Feature", "properties": {"id": null, "Name": "Ngunawal Dr after Kareelah Vsta", "description": "Stop id: 2106", "timestamp": null, "begin": null, "end": null, "altitudeMode": null, "tessellate": -1.0, "extrude": 0.0, "visibility": -1.0, "drawOrder": null, "icon": null, "mode": "bus", ":id": null, ":version": null, ":created_at": null, ":updated_at": null, "stage": null, "stopname": null, "objectid": null}, "geometry": {"type": "Point", "coordinates": [149.109087, -35.359623]}}, {"type": "Feature", "properties": {"id": null, "Name": "Ngunawal Dr before Kareelah Vsta", "description": "Stop id: 2105", "timestamp": null, "begin": null, "end": null, "altitudeMode": null, "tessellate": -1.0, "extrude": 0.0, "visibility": -1.0, "drawOrder": null, "icon": null, "mode": "bus", ":id": null, ":version": null, ":created_at": null, ":updated_at": null, "stage": null, "stopname": null, "objectid": null}, "geometry": {"type": "Point", "coordinates": [149.109038, -35.359443]}}, {"type": "Feature", "properties": {"id": null, "Name": "Pearce Shops Macfarland Cr", "description": "Stop id: 2050", "timestamp": null, "begin": null, "end": null, "altitudeMode": null, "tessellate": -1.0, "extrude": 0.0, "visibility": -1.0, "drawOrder": null, "icon": null, "mode": "bus", ":id": null, ":version": null, ":created_at": null, ":updated_at": null, "stage": null, "stopname": null, "objectid": null}, "geometry": {"type": "Point", "coordinates": [149.081353, -35.362987]}}, {"type": "Feature", "properties": {"id": null, "Name": "Southlands Shops Athllon Dr", "description": "Stop id: 2609", "timestamp": null, "begin": null, "end": null, "altitudeMode": null, "tessellate": -1.0, "extrude": 0.0, "visibility": -1.0, "drawOrder": null, "icon": null, "mode": "bus", ":id": null, ":version": null, ":created_at": null, ":updated_at": null, "stage": null, "stopname": null, "objectid": null}, "geometry": {"type": "Point", "coordinates": [149.092621, -35.364908]}}, {"type": "Feature", "properties": {"id": null, "Name": "Southlands Shops Heard St", "description": "Stop id: 2045", "timestamp": null, "begin": null, "end": null, "altitudeMode": null, "tessellate": -1.0, "extrude": 0.0, "visibility": -1.0, "drawOrder": null, "icon": null, "mode": "bus", ":id": null, ":version": null, ":created_at": null, ":updated_at": null, "stage": null, "stopname": null, "objectid": null}, "geometry": {"type": "Point", "coordinates": [149.095324, -35.365471]}}, {"type": "Feature", "properties": {"id": null, "Name": "St Peter & St Pauls PS Yamba Dr", "description": "Stop id: 2378", "timestamp": null, "begin": null, "end": null, "altitudeMode": null, "tessellate": -1.0, "extrude": 0.0, "visibility": -1.0, "drawOrder": null, "icon": null, "mode": "bus", ":id": null, ":version": null, ":created_at": null, ":updated_at": null, "stage": null, "stopname": null, "objectid": null}, "geometry": {"type": "Point", "coordinates": [149.093123, -35.339999]}}, {"type": "Feature", "properties": {"id": null, "Name": "Theodore St before 1st James St", "description": "Stop id: 2003", "timestamp": null, "begin": null, "end": null, "altitudeMode": null, "tessellate": -1.0, "extrude": 0.0, "visibility": -1.0, "drawOrder": null, "icon": null, "mode": "bus", ":id": null, ":version": null, ":created_at": null, ":updated_at": null, "stage": null, "stopname": null, "objectid": null}, "geometry": {"type": "Point", "coordinates": [149.081259, -35.335696]}}, {"type": "Feature", "properties": {"id": null, "Name": "Theodore St before 2nd Holman St", "description": "Stop id: 2029", "timestamp": null, "begin": null, "end": null, "altitudeMode": null, "tessellate": -1.0, "extrude": 0.0, "visibility": -1.0, "drawOrder": null, "icon": null, "mode": "bus", ":id": null, ":version": null, ":created_at": null, ":updated_at": null, "stage": null, "stopname": null, "objectid": null}, "geometry": {"type": "Point", "coordinates": [149.081246, -35.335554]}}, {"type": "Feature", "properties": {"id": null, "Name": "Theodore St before 2nd James St", "description": "Stop id: 2004", "timestamp": null, "begin": null, "end": null, "altitudeMode": null, "tessellate": -1.0, "extrude": 0.0, "visibility": -1.0, "drawOrder": null, "icon": null, "mode": "bus", ":id": null, ":version": null, ":created_at": null, ":updated_at": null, "stage": null, "stopname": null, "objectid": null}, "geometry": {"type": "Point", "coordinates": [149.07975, -35.333497]}}, {"type": "Feature", "properties": {"id": null, "Name": "Theodore St opp 1st James St", "description": "Stop id: 2028", "timestamp": null, "begin": null, "end": null, "altitudeMode": null, "tessellate": -1.0, "extrude": 0.0, "visibility": -1.0, "drawOrder": null, "icon": null, "mode": "bus", ":id": null, ":version": null, ":created_at": null, ":updated_at": null, "stage": null, "stopname": null, "objectid": null}, "geometry": {"type": "Point", "coordinates": [149.079877, -35.333686]}}, {"type": "Feature", "properties": {"id": null, "Name": "Throssell St after 2nd Robertson St", "description": "Stop id: 2023", "timestamp": null, "begin": null, "end": null, "altitudeMode": null, "tessellate": -1.0, "extrude": 0.0, "visibility": -1.0, "drawOrder": null, "icon": null, "mode": "bus", ":id": null, ":version": null, ":created_at": null, ":updated_at": null, "stage": null, "stopname": null, "objectid": null}, "geometry": {"type": "Point", "coordinates": [149.074953, -35.321521]}}, {"type": "Feature", "properties": {"id": null, "Name": "Throssell St after Jennings St", "description": "Stop id: 2009", "timestamp": null, "begin": null, "end": null, "altitudeMode": null, "tessellate": -1.0, "extrude": 0.0, "visibility": -1.0, "drawOrder": null, "icon": null, "mode": "bus", ":id": null, ":version": null, ":created_at": null, ":updated_at": null, "stage": null, "stopname": null, "objectid": null}, "geometry": {"type": "Point", "coordinates": [149.074925, -35.32116]}}, {"type": "Feature", "properties": {"id": null, "Name": "Throssell St after Kennerley St", "description": "Stop id: 2008", "timestamp": null, "begin": null, "end": null, "altitudeMode": null, "tessellate": -1.0, "extrude": 0.0, "visibility": -1.0, "drawOrder": null, "icon": null, "mode": "bus", ":id": null, ":version": null, ":created_at": null, ":updated_at": null, "stage": null, "stopname": null, "objectid": null}, "geometry": {"type": "Point", "coordinates": [149.074811, -35.322986]}}, {"type": "Feature", "properties": {"id": null, "Name": "Throssell St after Prendergast St", "description": "Stop id: 2022", "timestamp": null, "begin": null, "end": null, "altitudeMode": null, "tessellate": -1.0, "extrude": 0.0, "visibility": -1.0, "drawOrder": null, "icon": null, "mode": "bus", ":id": null, ":version": null, ":created_at": null, ":updated_at": null, "stage": null, "stopname": null, "objectid": null}, "geometry": {"type": "Point", "coordinates": [149.076987, -35.319479]}}, {"type": "Feature", "properties": {"id": null, "Name": "Throssell St after Storey St", "description": "Stop id: 2024", "timestamp": null, "begin": null, "end": null, "altitudeMode": null, "tessellate": -1.0, "extrude": 0.0, "visibility": -1.0, "drawOrder": null, "icon": null, "mode": "bus", ":id": null, ":version": null, ":created_at": null, ":updated_at": null, "stage": null, "stopname": null, "objectid": null}, "geometry": {"type": "Point", "coordinates": [149.074948, -35.323041]}}, {"type": "Feature", "properties": {"id": null, "Name": "Throssell St opp Prendergast St", "description": "Stop id: 2010", "timestamp": null, "begin": null, "end": null, "altitudeMode": null, "tessellate": -1.0, "extrude": 0.0, "visibility": -1.0, "drawOrder": null, "icon": null, "mode": "bus", ":id": null, ":version": null, ":created_at": null, ":updated_at": null, "stage": null, "stopname": null, "objectid": null}, "geometry": {"type": "Point", "coordinates": [149.077039, -35.319388]}}, {"type": "Feature", "properties": {"id": null, "Name": "Torrens PS Beasley St", "description": "Stop id: 2035", "timestamp": null, "begin": null, "end": null, "altitudeMode": null, "tessellate": -1.0, "extrude": 0.0, "visibility": -1.0, "drawOrder": null, "icon": null, "mode": "bus", ":id": null, ":version": null, ":created_at": null, ":updated_at": null, "stage": null, "stopname": null, "objectid": null}, "geometry": {"type": "Point", "coordinates": [149.090661, -35.371876]}}, {"type": "Feature", "properties": {"id": null, "Name": "Torrens Shops Beasley St", "description": "Stop id: 2074", "timestamp": null, "begin": null, "end": null, "altitudeMode": null, "tessellate": -1.0, "extrude": 0.0, "visibility": -1.0, "drawOrder": null, "icon": null, "mode": "bus", ":id": null, ":version": null, ":created_at": null, ":updated_at": null, "stage": null, "stopname": null, "objectid": null}, "geometry": {"type": "Point", "coordinates": [149.086631, -35.373089]}}, {"type": "Feature", "properties": {"id": null, "Name": "Tyagarah St after Culgoa Cct", "description": "Stop id: 2453", "timestamp": null, "begin": null, "end": null, "altitudeMode": null, "tessellate": -1.0, "extrude": 0.0, "visibility": -1.0, "drawOrder": null, "icon": null, "mode": "bus", ":id": null, ":version": null, ":created_at": null, ":updated_at": null, "stage": null, "stopname": null, "objectid": null}, "geometry": {"type": "Point", "coordinates": [149.106148, -35.349919]}}, {"type": "Feature", "properties": {"id": null, "Name": "Tyagarah St before Culgoa Cct", "description": "Stop id: 2096", "timestamp": null, "begin": null, "end": null, "altitudeMode": null, "tessellate": -1.0, "extrude": 0.0, "visibility": -1.0, "drawOrder": null, "icon": null, "mode": "bus", ":id": null, ":version": null, ":created_at": null, ":updated_at": null, "stage": null, "stopname": null, "objectid": null}, "geometry": {"type": "Point", "coordinates": [149.106441, -35.350118]}}, {"type": "Feature", "properties": {"id": null, "Name": "Wilkins St after Beasley St", "description": "Stop id: 2041", "timestamp": null, "begin": null, "end": null, "altitudeMode": null, "tessellate": -1.0, "extrude": 0.0, "visibility": -1.0, "drawOrder": null, "icon": null, "mode": "bus", ":id": null, ":version": null, ":created_at": null, ":updated_at": null, "stage": null, "stopname": null, "objectid": null}, "geometry": {"type": "Point", "coordinates": [149.099423, -35.370504]}}, {"type": "Feature", "properties": {"id": null, "Name": "Wilkins St after Hoadley St", "description": "Stop id: 2040", "timestamp": null, "begin": null, "end": null, "altitudeMode": null, "tessellate": -1.0, "extrude": 0.0, "visibility": -1.0, "drawOrder": null, "icon": null, "mode": "bus", ":id": null, ":version": null, ":created_at": null, ":updated_at": null, "stage": null, "stopname": null, "objectid": null}, "geometry": {"type": "Point", "coordinates": [149.099632, -35.370606]}}, {"type": "Feature", "properties": {"id": null, "Name": "Woden Temporary Interchange Plt 1", "description": "Stop id: 2761", "timestamp": null, "begin": null, "end": null, "altitudeMode": null, "tessellate": -1.0, "extrude": 0.0, "visibility": -1.0, "drawOrder": null, "icon": null, "mode": "bus", ":id": null, ":version": null, ":created_at": null, ":updated_at": null, "stage": null, "stopname": null, "objectid": null}, "geometry": {"type": "Point", "coordinates": [149.08746, -35.342973]}}, {"type": "Feature", "properties": {"id": null, "Name": "Woden Temporary Interchange Plt 2", "description": "Stop id: 2762", "timestamp": null, "begin": null, "end": null, "altitudeMode": null, "tessellate": -1.0, "extrude": 0.0, "visibility": -1.0, "drawOrder": null, "icon": null, "mode": "bus", ":id": null, ":version": null, ":created_at": null, ":updated_at": null, "stage": null, "stopname": null, "objectid": null}, "geometry": {"type": "Point", "coordinates": [149.087577, -35.343496]}}, {"type": "Feature", "properties": {"id": null, "Name": "Woden Temporary Interchange Plt 3", "description": "Stop id: 2763", "timestamp": null, "begin": null, "end": null, "altitudeMode": null, "tessellate": -1.0, "extrude": 0.0, "visibility": -1.0, "drawOrder": null, "icon": null, "mode": "bus", ":id": null, ":version": null, ":created_at": null, ":updated_at": null, "stage": null, "stopname": null, "objectid": null}, "geometry": {"type": "Point", "coordinates": [149.087308, -35.342741]}}, {"type": "Feature", "properties": {"id": null, "Name": "Woden Temporary Interchange Plt 3 Arrive", "description": "Stop id: 2764", "timestamp": null, "begin": null, "end": null, "altitudeMode": null, "tessellate": -1.0, "extrude": 0.0, "visibility": -1.0, "drawOrder": null, "icon": null, "mode": "bus", ":id": null, ":version": null, ":created_at": null, ":updated_at": null, "stage": null, "stopname": null, "objectid": null}, "geometry": {"type": "Point", "coordinates": [149.087425, -35.343279]}}, {"type": "Feature", "properties": {"id": null, "Name": "Woden Temporary Interchange Plt 4", "description": "Stop id: 2767", "timestamp": null, "begin": null, "end": null, "altitudeMode": null, "tessellate": -1.0, "extrude": 0.0, "visibility": -1.0, "drawOrder": null, "icon": null, "mode": "bus", ":id": null, ":version": null, ":created_at": null, ":updated_at": null, "stage": null, "stopname": null, "objectid": null}, "geometry": {"type": "Point", "coordinates": [149.087318, -35.343484]}}, {"type": "Feature", "properties": {"id": null, "Name": "Woden Temporary Interchange Plt 4 Arrive", "description": "Stop id: 2766", "timestamp": null, "begin": null, "end": null, "altitudeMode": null, "tessellate": -1.0, "extrude": 0.0, "visibility": -1.0, "drawOrder": null, "icon": null, "mode": "bus", ":id": null, ":version": null, ":created_at": null, ":updated_at": null, "stage": null, "stopname": null, "objectid": null}, "geometry": {"type": "Point", "coordinates": [149.08713, -35.342721]}}, {"type": "Feature", "properties": {"id": null, "Name": "Woden Temporary Interchange Plt 5", "description": "Stop id: 2768", "timestamp": null, "begin": null, "end": null, "altitudeMode": null, "tessellate": -1.0, "extrude": 0.0, "visibility": -1.0, "drawOrder": null, "icon": null, "mode": "bus", ":id": null, ":version": null, ":created_at": null, ":updated_at": null, "stage": null, "stopname": null, "objectid": null}, "geometry": {"type": "Point", "coordinates": [149.087036, -35.342746]}}, {"type": "Feature", "properties": {"id": null, "Name": "Woden Temporary Interchange Plt 6", "description": "Stop id: 2769", "timestamp": null, "begin": null, "end": null, "altitudeMode": null, "tessellate": -1.0, "extrude": 0.0, "visibility": -1.0, "drawOrder": null, "icon": null, "mode": "bus", ":id": null, ":version": null, ":created_at": null, ":updated_at": null, "stage": null, "stopname": null, "objectid": null}, "geometry": {"type": "Point", "coordinates": [149.087169, -35.343299]}}, {"type": "Feature", "properties": {"id": null, "Name": "Woden Temporary Interchange Plt 6 Arrive", "description": "Stop id: 2770", "timestamp": null, "begin": null, "end": null, "altitudeMode": null, "tessellate": -1.0, "extrude": 0.0, "visibility": -1.0, "drawOrder": null, "icon": null, "mode": "bus", ":id": null, ":version": null, ":created_at": null, ":updated_at": null, "stage": null, "stopname": null, "objectid": null}, "geometry": {"type": "Point", "coordinates": [149.087212, -35.343483]}}, {"type": "Feature", "properties": {"id": null, "Name": "Yamba Dr after Kitchener St", "description": "Stop id: 2094", "timestamp": null, "begin": null, "end": null, "altitudeMode": null, "tessellate": -1.0, "extrude": 0.0, "visibility": -1.0, "drawOrder": null, "icon": null, "mode": "bus", ":id": null, ":version": null, ":created_at": null, ":updated_at": null, "stage": null, "stopname": null, "objectid": null}, "geometry": {"type": "Point", "coordinates": [149.096397, -35.342457]}}, {"type": "Feature", "properties": {"id": null, "Name": "Yamba Dr before Kitchener St", "description": "Stop id: 2379", "timestamp": null, "begin": null, "end": null, "altitudeMode": null, "tessellate": -1.0, "extrude": 0.0, "visibility": -1.0, "drawOrder": null, "icon": null, "mode": "bus", ":id": null, ":version": null, ":created_at": null, ":updated_at": null, "stage": null, "stopname": null, "objectid": null}, "geometry": {"type": "Point", "coordinates": [149.096904, -35.342462]}}, {"type": "Feature", "properties": {"id": null, "Name": "Yamba Dr opp Canberra Hospital", "description": "Stop id: 2095", "timestamp": null, "begin": null, "end": null, "altitudeMode": null, "tessellate": -1.0, "extrude": 0.0, "visibility": -1.0, "drawOrder": null, "icon": null, "mode": "bus", ":id": null, ":version": null, ":created_at": null, ":updated_at": null, "stage": null, "stopname": null, "objectid": null}, "geometry": {"type": "Point", "coordinates": [149.09958, -35.3467]}}, {"type": "Feature", "properties": {"id": null, "Name": "Yamba Dr opp Justinian St", "description": "Stop id: 2380", "timestamp": null, "begin": null, "end": null, "altitudeMode": null, "tessellate": -1.0, "extrude": 0.0, "visibility": -1.0, "drawOrder": null, "icon": null, "mode": "bus", ":id": null, ":version": null, ":created_at": null, ":updated_at": null, "stage": null, "stopname": null, "objectid": null}, "geometry": {"type": "Point", "coordinates": [149.094758, -35.341134]}}, {"type": "Feature", "properties": {"id": null, "Name": "Yamba Dr opp St Peter & St Pauls PS", "description": "Stop id: 2093", "timestamp": null, "begin": null, "end": null, "altitudeMode": null, "tessellate": -1.0, "extrude": 0.0, "visibility": -1.0, "drawOrder": null, "icon": null, "mode": "bus", ":id": null, ":version": null, ":created_at": null, ":updated_at": null, "stage": null, "stopname": null, "objectid": null}, "geometry": {"type": "Point", "coordinates": [149.093514, -35.340547]}}]}